[
    {
        "id": "5ee1dd10-c914-4edb-9156-e940a5472295",
        "name": "Endt",
        "street": "M\u00fclforter Str. 49",
        "zipCode": "41238",
        "city": "M\u00f6nchengladbach",
        "phone": "02166-137344",
        "fax": "02166-137345",
        "latitude": 51.15301,
        "longitude": 6.49525,
        "detailURL": "https://www.trinkgut.de/markt/endt"
    },
    {
        "id": "3694483d-7952-49e3-b402-5b466209c052",
        "name": "Willeke",
        "street": "Egestorfer Str. 34-36",
        "zipCode": "30890",
        "city": "Barsinghausen",
        "phone": "05105-5838834",
        "fax": "05105-5838835",
        "latitude": 52.29523,
        "longitude": 9.47896,
        "detailURL": "https://www.trinkgut.de/markt/willeke"
    },
    {
        "id": "04cd7787-8398-4022-8093-5608dc8265a1",
        "name": "Willeke",
        "street": "Im Stadtfelde 1",
        "zipCode": "31515",
        "city": "Wunstorf",
        "phone": "05031-518760",
        "fax": "05031-518761",
        "latitude": 52.423923,
        "longitude": 9.45311,
        "detailURL": "https://www.trinkgut.de/markt/willeke-wunstorf"
    },
    {
        "id": "fe510d50-aa5f-4425-bb44-83d3dec30f27",
        "name": "Willeke",
        "street": "Berliner Str. 142",
        "zipCode": "38226",
        "city": "Salzgitter",
        "phone": "05341-1885189",
        "fax": "05341-1885190",
        "latitude": 52.161434,
        "longitude": 10.336547,
        "detailURL": "https://www.trinkgut.de/markt/willeke-salzgitter"
    },
    {
        "id": "b0ef400a-68ae-41b7-a411-7c0fa9094a47",
        "name": "Willeke",
        "street": "Am Pfingstanger 8",
        "zipCode": "38259",
        "city": "Salzgitter Bad",
        "phone": "05341-1861906",
        "fax": "05341-1864618",
        "latitude": 52.04966,
        "longitude": 10.37758,
        "detailURL": "https://www.trinkgut.de/markt/willeke-salzgitter-bad"
    },
    {
        "id": "5ef19a3d-dc9f-4019-87d4-fc63378e9d67",
        "name": "Willeke",
        "street": "Im Kalten Tale 11",
        "zipCode": "38304",
        "city": "Wolfenb\u00fcttel",
        "phone": "05331-932277",
        "fax": "05331-932276",
        "latitude": 52.155811,
        "longitude": 10.530655,
        "detailURL": "https://www.trinkgut.de/markt/willeke-wolfenbuettel"
    },
    {
        "id": "c785b5ee-4982-4a86-b373-2945763136ba",
        "name": "Willeke",
        "street": "Isenb\u00fctteler Weg 43",
        "zipCode": "38518",
        "city": "Gifhorn",
        "phone": "05371-588719",
        "fax": "05371-589452",
        "latitude": 52.4640557,
        "longitude": 10.5553318,
        "detailURL": "https://www.trinkgut.de/markt/willeke-gifhorn"
    },
    {
        "id": "76821304-12cf-48cd-b6ee-dc15c7061a2d",
        "name": "Jacob",
        "street": "Moorberg 3",
        "zipCode": "31157",
        "city": "Sarstedt",
        "phone": "05066-60 35 85 7",
        "fax": "05066-60 35 85 9",
        "latitude": 52.23725,
        "longitude": 9.87481,
        "detailURL": "https://www.trinkgut.de/markt/jacob"
    },
    {
        "id": "7dc4154f-bc56-4d10-a822-b6c06197b9c1",
        "name": "Hamplewski",
        "street": "Herbert-Quandt-Str. 8",
        "zipCode": "31135",
        "city": "Hildesheim",
        "phone": "05121-2892701",
        "fax": "05121-2892702",
        "latitude": 52.16528,
        "longitude": 9.97107,
        "detailURL": "https://www.trinkgut.de/markt/hamplewski"
    },
    {
        "id": "3b5a825e-34de-4fec-a99e-6af3978e61bb",
        "name": "Hoppen",
        "street": "Auf der B\u00fcnte 7",
        "zipCode": "31737",
        "city": "Rinteln",
        "phone": "05751-923541",
        "fax": "05751-923542",
        "latitude": 52.1966,
        "longitude": 9.08254,
        "detailURL": "https://www.trinkgut.de/markt/hoppen"
    },
    {
        "id": "3e83f40f-4d9f-46e7-bd77-d9768a998955",
        "name": "Isermann",
        "street": "Neuenh\u00e4user Str. 3",
        "zipCode": "29221",
        "city": "Celle",
        "phone": "05141-2086831",
        "fax": "05141-2086838",
        "latitude": 52.60958,
        "longitude": 10.06122,
        "detailURL": "https://www.trinkgut.de/markt/isermann"
    },
    {
        "id": "aa55b502-8adc-442a-96e4-70de54ac8208",
        "name": "Rott",
        "street": "Hansestr. 8",
        "zipCode": "37574",
        "city": "Einbeck",
        "phone": "05561-3139094",
        "fax": "05561-3139540",
        "latitude": 51.81735,
        "longitude": 9.83879,
        "detailURL": "https://www.trinkgut.de/markt/rott"
    },
    {
        "id": "e778ddfc-83eb-493c-873b-d4135c9919cd",
        "name": "Schwanke",
        "street": "Davenstedter Str. 109c",
        "zipCode": "30453",
        "city": "Hannover",
        "phone": "0511-21 33 412",
        "fax": "0511-21 35 123",
        "latitude": 52.36504,
        "longitude": 9.69537,
        "detailURL": "https://www.trinkgut.de/markt/schwanke"
    },
    {
        "id": "9ee8e492-78a5-44d5-aa2d-fd18220f2427",
        "name": "Filiale Lehrte",
        "street": "Gau\u00dfstr.1",
        "zipCode": "31275",
        "city": "Lehrte",
        "phone": "05132-8886741",
        "fax": "05132-8886742",
        "latitude": 52.3852067,
        "longitude": 10.0164773,
        "detailURL": "https://www.trinkgut.de/markt/filiale-lehrte"
    },
    {
        "id": "7eab040e-a4fe-4865-a281-1030d922550a",
        "name": "Swen Hoppen",
        "street": "Wehrberger Str. 16",
        "zipCode": "31785",
        "city": "Hameln",
        "phone": "05151-408312",
        "fax": "05151-408559",
        "latitude": 52.11524,
        "longitude": 9.34991,
        "detailURL": "https://www.trinkgut.de/markt/swen-hoppen"
    },
    {
        "id": "3a7b0a6b-b6cc-4b48-8892-4c0f837f63b8",
        "name": "Filiale Seesen",
        "street": "Frankfurter Stra\u00dfe 5",
        "zipCode": "38723",
        "city": "Seesen",
        "phone": "05381-4924350",
        "fax": "05381-4924351",
        "latitude": 51.887579,
        "longitude": 10.1673002,
        "detailURL": "https://www.trinkgut.de/markt/filiale-seesen"
    },
    {
        "id": "9b132e90-634e-4473-82c0-d745ab618cc0",
        "name": "Cinkilic",
        "street": "Buchholzer Stra\u00dfe 40",
        "zipCode": "30629",
        "city": "Hannover",
        "phone": "0511 54220451",
        "fax": "0511 54220452",
        "latitude": 52.3940032,
        "longitude": 9.84387,
        "detailURL": "https://www.trinkgut.de/markt/cinkilic"
    },
    {
        "id": "791d75f9-fe26-40bc-844d-6a1f03ab4a0a",
        "name": "Cichy",
        "street": "Fleher Str. 32",
        "zipCode": "40223",
        "city": "D\u00fcsseldorf Bilk",
        "phone": null,
        "fax": "0211-33679459",
        "latitude": 51.2043,
        "longitude": 6.7652,
        "detailURL": "https://www.trinkgut.de/markt/cichy"
    },
    {
        "id": "0d1ce1f9-fe4c-4070-ad76-f9a5224c31fa",
        "name": "Willeke",
        "street": "Lange Str. 56a",
        "zipCode": "29664",
        "city": "Walsrode",
        "phone": "05161-7887880",
        "fax": "05161-6030298",
        "latitude": 52.86135,
        "longitude": 9.58869,
        "detailURL": "https://www.trinkgut.de/markt/willeke-walsrode"
    },
    {
        "id": "2cf41377-7c08-4536-9235-36493a093c00",
        "name": "Osterland-Tacke",
        "street": "Dahlienstra\u00dfe 36",
        "zipCode": "42477",
        "city": "Radevormwald",
        "phone": "02195-5114",
        "fax": "02195-1405",
        "latitude": 51.202628,
        "longitude": 7.383086,
        "detailURL": "https://www.trinkgut.de/markt/osterland-tacke"
    },
    {
        "id": "2b9cdb28-e04d-458a-92c0-863c3d8dfe73",
        "name": "Kempken",
        "street": "Birkschen Weg 64",
        "zipCode": "47803",
        "city": "Krefeld",
        "phone": "02151-620672",
        "fax": "02151-620673",
        "latitude": 51.34642,
        "longitude": 6.54098,
        "detailURL": "https://www.trinkgut.de/markt/kempken"
    },
    {
        "id": "52eca316-4c86-4730-abd4-0ad0a1393b78",
        "name": "Ahmann",
        "street": "Kronenweg 19",
        "zipCode": "50389",
        "city": "Wesseling",
        "phone": "02236-3843510",
        "fax": "02236-3843511",
        "latitude": 50.81682,
        "longitude": 6.98666,
        "detailURL": "https://www.trinkgut.de/markt/ahmann"
    },
    {
        "id": "26522452-f1aa-4155-a079-a4cf1368b94b",
        "name": "Akbas",
        "street": "Aachener Str. 11a",
        "zipCode": "52428",
        "city": "J\u00fclich",
        "phone": "02461-341604",
        "fax": "02461-341704",
        "latitude": 50.92439,
        "longitude": 6.35479,
        "detailURL": "https://www.trinkgut.de/markt/akbas"
    },
    {
        "id": "4a7e30b1-3a3a-4316-b0c8-4ef268873734",
        "name": "Akyildiz",
        "street": "\u00dcmminger Str. 84",
        "zipCode": "44892",
        "city": "Bochum",
        "phone": "0234-9271683",
        "fax": "0234-9271685",
        "latitude": 51.46905,
        "longitude": 7.29642,
        "detailURL": "https://www.trinkgut.de/markt/akyildiz"
    },
    {
        "id": "7c5c5d2a-11e4-4ac3-b9f4-2dd9ae25dc70",
        "name": "Akyildiz",
        "street": "Industriestr. 42",
        "zipCode": "44894",
        "city": "Bochum  Werne",
        "phone": "0234-5889871",
        "fax": "0234-8937908",
        "latitude": 51.47502,
        "longitude": 7.28914,
        "detailURL": "https://www.trinkgut.de/markt/akyildiz-bochum-werne"
    },
    {
        "id": "b6ca9faf-689d-4bcc-b97a-220d79f3288d",
        "name": "G\u00f6ldner",
        "street": "Bahnhofstr.24",
        "zipCode": "46242",
        "city": "Bottrop",
        "phone": "02041-7061775",
        "fax": "02041-7061776",
        "latitude": 51.5115749,
        "longitude": 6.9339686,
        "detailURL": "https://www.trinkgut.de/markt/goeldner"
    },
    {
        "id": "1269ba24-a531-46d0-bf32-1418431b1b73",
        "name": "Albers",
        "street": "Keniastrasse 39",
        "zipCode": "47269",
        "city": "Duisburg - Gro\u00dfenbaum",
        "phone": "0203-71299070",
        "fax": "0203-71299071",
        "latitude": 51.377125,
        "longitude": 6.773583,
        "detailURL": "https://www.trinkgut.de/markt/albers"
    },
    {
        "id": "c57ee6ac-01cc-423a-a5a7-f9fcd0718dcd",
        "name": "Gewandt",
        "street": "Kirchhellener Str. 140",
        "zipCode": "46145",
        "city": "Oberhausen Alsfeld",
        "phone": "0208-2997600",
        "fax": "0208-2997601",
        "latitude": 51.53807,
        "longitude": 6.86396,
        "detailURL": "https://www.trinkgut.de/markt/gewandt"
    },
    {
        "id": "dda5d1ee-e187-40dc-9924-7a09652d77d4",
        "name": "Arici",
        "street": "Kurierweg 28",
        "zipCode": "46562",
        "city": "Voerde Friedrichsfeld",
        "phone": "0281-1647605",
        "fax": "0281-1647606",
        "latitude": 51.63268,
        "longitude": 6.66852,
        "detailURL": "https://www.trinkgut.de/markt/arici"
    },
    {
        "id": "6e8d45dd-2606-4f66-84bc-1341851d4a7a",
        "name": "Arici",
        "street": "Kaiserstr. 324",
        "zipCode": "47178",
        "city": "Duisburg Alt Walsum",
        "phone": "0203-4792695",
        "fax": "0203-4792696",
        "latitude": 51.54639,
        "longitude": 6.71288,
        "detailURL": "https://www.trinkgut.de/markt/arici-duisburg-alt-walsum"
    },
    {
        "id": "c2912e6a-2486-44fc-9157-c01fd242b13c",
        "name": "Arici",
        "street": "Rudolf-Diesel-Str. 64",
        "zipCode": "46485",
        "city": "Wesel Obrighoven",
        "phone": "0281-8110220",
        "fax": "0281-8549586",
        "latitude": 51.666718,
        "longitude": 6.6669054,
        "detailURL": "https://www.trinkgut.de/markt/arici-wesel-obrighoven"
    },
    {
        "id": "fb7d45ae-d954-4310-a225-69713e6bf36d",
        "name": "Ayyildiz",
        "street": "Senefelder Str. 12b",
        "zipCode": "33100",
        "city": "Paderborn Ost",
        "phone": "05251-56736",
        "fax": "05251-57946",
        "latitude": 51.73321,
        "longitude": 8.78741,
        "detailURL": "https://www.trinkgut.de/markt/ayyildiz"
    },
    {
        "id": "10d45ac1-c5f2-4c2d-8c93-0be596c1cfba",
        "name": "Ayyildiz",
        "street": "Frankfurter Weg 47",
        "zipCode": "33106",
        "city": "Paderborn",
        "phone": "05251-6932950",
        "fax": "05251-6932953",
        "latitude": 51.69711,
        "longitude": 8.73557,
        "detailURL": "https://www.trinkgut.de/markt/ayyildiz-paderborn"
    },
    {
        "id": "a6632a70-a3fc-4a45-8bea-3d2ae140a47e",
        "name": "B\u00e4chler",
        "street": "Wanner Str. 19-27",
        "zipCode": "46145",
        "city": "Oberhausen Sterkrade",
        "phone": "0208-6358977",
        "fax": "0208-6358988",
        "latitude": 51.5092889,
        "longitude": 6.8563006,
        "detailURL": "https://www.trinkgut.de/markt/baechler"
    },
    {
        "id": "a732a86f-ea74-4f56-b290-f56936c64e1f",
        "name": "Patrikis",
        "street": "Westpreu\u00dfenstr. 36",
        "zipCode": "47809",
        "city": "Krefeld Linn",
        "phone": "02151-157336",
        "fax": "02151-157332",
        "latitude": 51.340383,
        "longitude": 6.65435,
        "detailURL": "https://www.trinkgut.de/markt/patrikis"
    },
    {
        "id": "f9e87426-b677-425b-9693-ab46ab8138c5",
        "name": "Bittner",
        "street": "Gro\u00dfer Fledderweg 27",
        "zipCode": "49084",
        "city": "Osnabr\u00fcck Fledder",
        "phone": "0541-9997940",
        "fax": "0541-9997941",
        "latitude": 52.2630321,
        "longitude": 8.0715553,
        "detailURL": "https://www.trinkgut.de/markt/bittner"
    },
    {
        "id": "de4ac0fa-ddf6-4688-a773-78bbff153191",
        "name": "Bo\u00dfler",
        "street": "Stahlstr. 10",
        "zipCode": "65428",
        "city": "R\u00fcsselsheim",
        "phone": "06142-171207",
        "fax": "06142-171457",
        "latitude": 49.9807,
        "longitude": 8.432,
        "detailURL": "https://www.trinkgut.de/markt/bossler"
    },
    {
        "id": "74546051-7285-4b04-9fe3-42ac2ca08b6b",
        "name": "Breidenbach",
        "street": "Adolf Kaschny Stra\u00dfe 1-5",
        "zipCode": "51373",
        "city": "Leverkusen",
        "phone": "0214-6026856",
        "fax": null,
        "latitude": 51.0307,
        "longitude": 6.9898,
        "detailURL": "https://www.trinkgut.de/markt/breidenbach"
    },
    {
        "id": "bd633223-b499-4c40-8c82-aa1efe745b9c",
        "name": "Breil",
        "street": "K\u00f6lner Str. 55",
        "zipCode": "53902",
        "city": "Bad M\u00fcnstereifel",
        "phone": "02253-5457303",
        "fax": "02253-9324759",
        "latitude": 50.5670559,
        "longitude": 6.7622361,
        "detailURL": "https://www.trinkgut.de/markt/breil"
    },
    {
        "id": "6347f64d-5215-4bce-a87a-8d783025bdd7",
        "name": "Bruss",
        "street": "Zechenstr. 33",
        "zipCode": "45772",
        "city": "Marl Brassert",
        "phone": "02365-507526",
        "fax": "02365-507529",
        "latitude": 51.66151,
        "longitude": 7.08494,
        "detailURL": "https://www.trinkgut.de/markt/bruss"
    },
    {
        "id": "bec2fce2-f0a5-4269-afd0-8da762eea240",
        "name": "Cevik",
        "street": "Eisenbahnstra\u00dfe 153",
        "zipCode": "52222",
        "city": "Stolberg",
        "phone": "02402-1020340",
        "fax": "02402-1020341",
        "latitude": 50.786229,
        "longitude": 6.217782,
        "detailURL": "https://www.trinkgut.de/markt/cevik"
    },
    {
        "id": "0ef825c9-955f-400c-81cb-56252b8f8423",
        "name": "Chaveiro",
        "street": "Sch\u00fcrmannstr. 22",
        "zipCode": "45136",
        "city": "Essen Rellinghausen",
        "phone": "0201-8943582",
        "fax": "0201-8943583",
        "latitude": 51.43455,
        "longitude": 7.02971,
        "detailURL": "https://www.trinkgut.de/markt/chaveiro"
    },
    {
        "id": "ac445e04-eda9-4f33-947b-7fc5eb377366",
        "name": "Cwieczek",
        "street": "Albert-Einstein-Str. 9a",
        "zipCode": "42929",
        "city": "Wermelskirchen",
        "phone": "02196-884205",
        "fax": "02196-884204",
        "latitude": 51.14715,
        "longitude": 7.25195,
        "detailURL": "https://www.trinkgut.de/markt/cwieczek"
    },
    {
        "id": "4e966003-c264-4020-8dbd-71d009127dfe",
        "name": "Davies",
        "street": "Hansaweg 2",
        "zipCode": "32758",
        "city": "Detmold",
        "phone": "05231-306593",
        "fax": "05231-306594",
        "latitude": 51.946143,
        "longitude": 8.85747,
        "detailURL": "https://www.trinkgut.de/markt/davies"
    },
    {
        "id": "7b6461f0-20ba-4fea-b1ae-3d552009a0d5",
        "name": "Dicke",
        "street": "Am Paulshof 32-38",
        "zipCode": "58119",
        "city": "Hagen Hohenlimburg",
        "phone": "02334-442438",
        "fax": "02334-442437",
        "latitude": 51.37184,
        "longitude": 7.54818,
        "detailURL": "https://www.trinkgut.de/markt/dicke"
    },
    {
        "id": "4d09b737-b39f-4996-b832-9a501ce7072b",
        "name": "Dicke",
        "street": "Hauptstra\u00dfe 69",
        "zipCode": "58675",
        "city": "Hemer",
        "phone": "02372-5529966",
        "fax": "02372-5529965",
        "latitude": 51.377011,
        "longitude": 7.762581,
        "detailURL": "https://www.trinkgut.de/markt/dicke-hemer"
    },
    {
        "id": "f289da23-6ac6-422e-bd9c-15524a9e137e",
        "name": "Diekmann",
        "street": "Velberter Str. 2 - 6",
        "zipCode": "45239",
        "city": "Essen",
        "phone": "0201-4901336",
        "fax": "0201-8496094",
        "latitude": 51.388229,
        "longitude": 7.011087,
        "detailURL": "https://www.trinkgut.de/markt/diekmann"
    },
    {
        "id": "23edb401-b6f2-4b18-a375-c50bb47c602f",
        "name": "Erbas",
        "street": "Hammer Str. 371",
        "zipCode": "48153",
        "city": "M\u00fcnster neben Preussenstadion",
        "phone": "0251-784444",
        "fax": "0251-784445",
        "latitude": 51.92824,
        "longitude": 7.62892,
        "detailURL": "https://www.trinkgut.de/markt/erbas"
    },
    {
        "id": "c4c39960-e16b-4551-8d08-0338b3a6aa0d",
        "name": "Erbeck",
        "street": "Manderscheidtstr. 18",
        "zipCode": "45141",
        "city": "Essen Frillendorf",
        "phone": "0201-21825",
        "fax": "0201-21824",
        "latitude": 51.4709421,
        "longitude": 7.0542796,
        "detailURL": "https://www.trinkgut.de/markt/erbeck"
    },
    {
        "id": "9a2b1bb7-2064-48f3-bd5c-53f927feecca",
        "name": "Erbeck",
        "street": "Achternbergstr. 3",
        "zipCode": "45884",
        "city": "Gelsenkirchen Rotthausen",
        "phone": "0209-1209225",
        "fax": "0209-1209227",
        "latitude": 51.4837215,
        "longitude": 7.0788635,
        "detailURL": "https://www.trinkgut.de/markt/erbeck-gelsenkirchen-rotthausen"
    },
    {
        "id": "385206c8-545d-4aef-9f5d-523b8f8a583a",
        "name": "Esch",
        "street": "Gerhardstr. 12",
        "zipCode": "53229",
        "city": "Bonn",
        "phone": "0228-4222936",
        "fax": "0228-4222982",
        "latitude": 50.7464,
        "longitude": 7.13048,
        "detailURL": "https://www.trinkgut.de/markt/esch"
    },
    {
        "id": "2b22293b-9fe1-425c-b9b0-2583d5e22f1f",
        "name": "Esch",
        "street": "Bonnstra\u00dfe 246-248",
        "zipCode": "50354",
        "city": "H\u00fcrth",
        "phone": "02233-9289300",
        "fax": "02233-9289301",
        "latitude": 50.872481,
        "longitude": 6.892158,
        "detailURL": "https://www.trinkgut.de/markt/esch-huerth"
    },
    {
        "id": "235e145e-c357-41b2-b08e-3ca7f73f2d83",
        "name": "Esch",
        "street": "Porzer Str.33",
        "zipCode": "53859",
        "city": "Niederkassel",
        "phone": "02208-5007317",
        "fax": "02208-9013056",
        "latitude": 50.8279457,
        "longitude": 7.0312328,
        "detailURL": "https://www.trinkgut.de/markt/esch-niederkassel"
    },
    {
        "id": "316425ee-e97a-421f-825a-2a4721e4e4da",
        "name": "Eyilmez",
        "street": "Wolfsbankring 36",
        "zipCode": "45355",
        "city": "Essen",
        "phone": "0201-321034",
        "fax": "0201-4385913",
        "latitude": 51.47038,
        "longitude": 6.95794,
        "detailURL": "https://www.trinkgut.de/markt/eyilmez"
    },
    {
        "id": "55b73b36-9616-468f-822e-f41633c9ab8f",
        "name": "Dobrucki",
        "street": "Elberfelder Str. 86",
        "zipCode": "40822",
        "city": "Mettmann",
        "phone": "02104-915910",
        "fax": "02104-915911",
        "latitude": 51.2487734,
        "longitude": 6.9876211,
        "detailURL": "https://www.trinkgut.de/markt/dobrucki"
    },
    {
        "id": "e3032a4d-dc38-4204-8d93-74aca77fc7db",
        "name": "Foschepoth",
        "street": "Konrad-Adenauer-Str. 6",
        "zipCode": "Konrad-Adenauer-Str. 6\t33397",
        "city": "Rietberg",
        "phone": "05244-939355",
        "fax": "05244-939356",
        "latitude": 51.82161,
        "longitude": 8.4335,
        "detailURL": "https://www.trinkgut.de/markt/foschepoth"
    },
    {
        "id": "2c5810a6-1a50-4a25-bfd0-3d260eee2a50",
        "name": "Francki",
        "street": "Allensteiner Str. 22a",
        "zipCode": "56566",
        "city": "Neuwied",
        "phone": "02631-342755",
        "fax": "02631-342756",
        "latitude": 50.4377672,
        "longitude": 7.4927009,
        "detailURL": "https://www.trinkgut.de/markt/francki"
    },
    {
        "id": "e0d35f67-4483-4996-9e01-805730bd59d1",
        "name": "Fr\u00f6se",
        "street": "Westerholter Stra\u00dfe 790",
        "zipCode": "45701",
        "city": "Herten",
        "phone": "02366-53053",
        "fax": "02366-585664",
        "latitude": 51.601906,
        "longitude": 7.106327,
        "detailURL": "https://www.trinkgut.de/markt/froese"
    },
    {
        "id": "92b3bd81-0b6e-48f3-844d-5bf55061096f",
        "name": "Gehlich",
        "street": "Aachener Stra\u00dfe 120",
        "zipCode": "52477",
        "city": "Alsdorf",
        "phone": null,
        "fax": null,
        "latitude": 50.853358,
        "longitude": 6.199152,
        "detailURL": "https://www.trinkgut.de/markt/gehlich"
    },
    {
        "id": "450fc5d8-247f-46ec-a7a1-b71908223783",
        "name": "Geldermann",
        "street": "Roder Weg 9-11",
        "zipCode": "52072",
        "city": "Aachen",
        "phone": "0241-18295919",
        "fax": "0241-18298301",
        "latitude": 50.817461,
        "longitude": 6.065035,
        "detailURL": "https://www.trinkgut.de/markt/geldermann"
    },
    {
        "id": "cc256cf6-104c-42ff-bb3e-059303b75f6f",
        "name": "Gerdes",
        "street": "Edekaplatz 3",
        "zipCode": "47445",
        "city": "Moers",
        "phone": "02841-8819833",
        "fax": "02841-8819834",
        "latitude": 51.4693348,
        "longitude": 6.6310297,
        "detailURL": "https://www.trinkgut.de/markt/gerdes"
    },
    {
        "id": "ba7f4e10-3fb6-4f48-b431-41a7f93d7cad",
        "name": "Gerstberger",
        "street": "Annemarie-Renger-Weg 8",
        "zipCode": "46047",
        "city": "Oberhausen Bermensfeld",
        "phone": "0208-865209",
        "fax": "0208-879516",
        "latitude": 51.48252,
        "longitude": 6.88669,
        "detailURL": "https://www.trinkgut.de/markt/gerstberger"
    },
    {
        "id": "8237eacc-2f13-494f-b5cc-68d11ffaf627",
        "name": "G\u00f6kkaya",
        "street": "Untergath 210",
        "zipCode": "47805",
        "city": "Krefeld Die\u00dfem",
        "phone": "02151-545925",
        "fax": "02151-545927",
        "latitude": 51.32209,
        "longitude": 6.59103,
        "detailURL": "https://www.trinkgut.de/markt/goekkaya"
    },
    {
        "id": "e44659ee-63b1-45d6-b615-96ad5a710ffb",
        "name": "Grahl",
        "street": "Monschauer Str. 37",
        "zipCode": "41068",
        "city": "M\u00f6nchengladbach",
        "phone": "02161-837056",
        "fax": "02161-837055",
        "latitude": 51.191639,
        "longitude": 6.408738,
        "detailURL": "https://www.trinkgut.de/markt/grahl"
    },
    {
        "id": "eb7b739d-732e-48ab-be89-3cf2c60306bc",
        "name": "Gr\u00f6ning",
        "street": "Hammer Str. 10-14",
        "zipCode": "58285",
        "city": "Gevelsberg",
        "phone": "02332-662250",
        "fax": "02332-662553",
        "latitude": 51.31742,
        "longitude": 7.32675,
        "detailURL": "https://www.trinkgut.de/markt/groening"
    },
    {
        "id": "21d2310b-46ef-4b13-a735-7cc73d2f69e8",
        "name": "Gr\u00fcder",
        "street": "Industriestr.1",
        "zipCode": "45731",
        "city": "Waltrop",
        "phone": "02309-608253",
        "fax": "02309-781674",
        "latitude": 51.623845,
        "longitude": 7.4160542,
        "detailURL": "https://www.trinkgut.de/markt/grueder"
    },
    {
        "id": "ba872861-88fa-45fc-98dc-5191cfd0c9d9",
        "name": "G\u00fclden",
        "street": "Els\u00e4sser Str. 22",
        "zipCode": "53175",
        "city": "Bonn / Bad Godesberg",
        "phone": "0228-93199795",
        "fax": "0228-93199796",
        "latitude": 50.68985,
        "longitude": 7.1447,
        "detailURL": "https://www.trinkgut.de/markt/guelden"
    },
    {
        "id": "492fe96c-210e-4c0e-a48c-98c5a0f5a773",
        "name": "Hachulla",
        "street": "N\u00fcrnberger Str. 22",
        "zipCode": "40599",
        "city": "D\u00fcsseldorf",
        "phone": "0211-7487989",
        "fax": "0211-7404325",
        "latitude": 51.170284,
        "longitude": 6.85581,
        "detailURL": "https://www.trinkgut.de/markt/hachulla"
    },
    {
        "id": "475b0eab-1943-48b2-a718-43913f3a1822",
        "name": "Filiale D\u00fcsseldorf Benrath",
        "street": "Bayreuther Str. 22",
        "zipCode": "40597",
        "city": "D\u00fcsseldorf Benrath",
        "phone": "0211-7183903",
        "fax": "0211-7183905",
        "latitude": 51.16844,
        "longitude": 6.87221,
        "detailURL": "https://www.trinkgut.de/markt/filiale-duesseldorf-benrath"
    },
    {
        "id": "ad2abe29-9df0-47ea-aec7-9b8055a87373",
        "name": "Harmeling",
        "street": "Wigger Stra\u00dfe 2",
        "zipCode": "46399",
        "city": "Bocholt-Suderwick",
        "phone": "02874-900832",
        "fax": "02874-900833",
        "latitude": 51.860148,
        "longitude": 6.49911,
        "detailURL": "https://www.trinkgut.de/markt/harmeling"
    },
    {
        "id": "1f13ac54-ec16-491b-aa0f-78552c5bb2e1",
        "name": "Hassan",
        "street": "Richard-Klinger-Str. 2A",
        "zipCode": "65510",
        "city": "Idstein",
        "phone": "06126-9526662",
        "fax": "06126-9526663",
        "latitude": 50.20622,
        "longitude": 8.26013,
        "detailURL": "https://www.trinkgut.de/markt/hassan"
    },
    {
        "id": "4aca8a61-9325-4ece-bcb2-34cf32a3b48a",
        "name": "Strohb\u00fccker",
        "street": "Orkotten 42",
        "zipCode": "48291",
        "city": "Telgte",
        "phone": "02504-7399475",
        "fax": "02504-7399490",
        "latitude": 51.980072,
        "longitude": 7.77366,
        "detailURL": "https://www.trinkgut.de/markt/strohbuecker"
    },
    {
        "id": "95295a43-b285-46a3-a7fc-91e52d6199bc",
        "name": "Held",
        "street": "\u00dcckendorfer Str. 60",
        "zipCode": "45886",
        "city": "Gelsenkirchen \u00dcckendorf",
        "phone": "0209-1475708",
        "fax": "0209-1474479",
        "latitude": 51.50313,
        "longitude": 7.11665,
        "detailURL": "https://www.trinkgut.de/markt/held"
    },
    {
        "id": "c4dedcf1-0874-400d-9f4a-94fb52fb184c",
        "name": "Helfrich",
        "street": "Wiesenstr. 2",
        "zipCode": "50181",
        "city": "Bedburg (Erftkreis)",
        "phone": "02272-9024967",
        "fax": "02272-9024968",
        "latitude": 50.99871,
        "longitude": 6.57261,
        "detailURL": "https://www.trinkgut.de/markt/helfrich"
    },
    {
        "id": "23441dcb-9075-43b5-944d-c4a912b1617b",
        "name": "Helfrich",
        "street": "Am Falder 12",
        "zipCode": "50171",
        "city": "Kerpen",
        "phone": "02237-9799444",
        "fax": "02237-9799424",
        "latitude": 50.881233,
        "longitude": 6.691185,
        "detailURL": "https://www.trinkgut.de/markt/helfrich-kerpen"
    },
    {
        "id": "05e1784a-0aab-40f0-b24c-9cb4d2e54e09",
        "name": "Hensges",
        "street": "J\u00fclicher Str. 4",
        "zipCode": "41849",
        "city": "Wassenberg",
        "phone": "02432-890326",
        "fax": "02432-890328",
        "latitude": 51.09181,
        "longitude": 6.159638,
        "detailURL": "https://www.trinkgut.de/markt/hensges"
    },
    {
        "id": "8afabb7d-e330-453b-9344-4a16a229ad23",
        "name": "H\u00f6lscher",
        "street": "Forststr./ Ecke Eschenstr.",
        "zipCode": "47055",
        "city": "Duisburg Wanheimerort",
        "phone": "0203-3488253",
        "fax": "0203-3488254",
        "latitude": 51.396515,
        "longitude": 6.753051,
        "detailURL": "https://www.trinkgut.de/markt/hoelscher"
    },
    {
        "id": "6d2e8a04-0234-4a9d-a4c4-4fdd92edbc5f",
        "name": "H\u00f6lscher",
        "street": "Nebenbank 1-3",
        "zipCode": "45472",
        "city": "M\u00fclheim",
        "phone": "0208-3018313",
        "fax": "0208-3018332",
        "latitude": 51.43412,
        "longitude": 6.92107,
        "detailURL": "https://www.trinkgut.de/markt/hoelscher-muelheim"
    },
    {
        "id": "09aeecd3-122d-465f-bc86-54f5abf0de96",
        "name": "H\u00f6lscher",
        "street": "Weierstra\u00dfe 72",
        "zipCode": "46149",
        "city": "Oberhausen",
        "phone": "0208-63539262",
        "fax": "0208-63539274",
        "latitude": 51.519221,
        "longitude": 6.829187,
        "detailURL": "https://www.trinkgut.de/markt/hoelscher-oberhausen"
    },
    {
        "id": "390644f8-39ba-436e-a66f-810f5942eec8",
        "name": "H\u00f6lscher",
        "street": "Otto-Lilienthal-Str. 37",
        "zipCode": "46539",
        "city": "Dinslaken",
        "phone": "02064-71207",
        "fax": "02064-71401",
        "latitude": 51.56796,
        "longitude": 6.75334,
        "detailURL": "https://www.trinkgut.de/markt/hoelscher-dinslaken"
    },
    {
        "id": "e07a0bd5-b3c6-4ce9-85c9-474b486cf893",
        "name": "Honsel",
        "street": "Borkener Str. 172",
        "zipCode": "46284",
        "city": "Dorsten Holtershausen",
        "phone": "02362-201800",
        "fax": "02362-2018010",
        "latitude": 51.684,
        "longitude": 6.95451,
        "detailURL": "https://www.trinkgut.de/markt/honsel"
    },
    {
        "id": "a0f864df-511b-4f60-ae45-6258ff0a5daa",
        "name": "Honsel",
        "street": "Am Wasserturm 5",
        "zipCode": "46282",
        "city": "Dorsten",
        "phone": "02362-2029182",
        "fax": "02362-2029203",
        "latitude": 51.656228,
        "longitude": 6.968813,
        "detailURL": "https://www.trinkgut.de/markt/honsel-dorsten"
    },
    {
        "id": "efe1205f-8a3d-4d35-8b88-349a68085398",
        "name": "Interbieten",
        "street": "An den Eifelhecken 3",
        "zipCode": "53919",
        "city": "Weilerswist",
        "phone": "02254-6013135",
        "fax": "02254-6013139",
        "latitude": 50.747037,
        "longitude": 6.851723,
        "detailURL": "https://www.trinkgut.de/markt/interbieten"
    },
    {
        "id": "5e102be0-bc36-4a80-b173-ac7ad3af506e",
        "name": "Kantimm",
        "street": "Am Wasserturm 1",
        "zipCode": "58515",
        "city": "L\u00fcdenscheid",
        "phone": "02351-6783013",
        "fax": "02351-6783014",
        "latitude": 51.206051,
        "longitude": 7.581387,
        "detailURL": "https://www.trinkgut.de/markt/kantimm"
    },
    {
        "id": "e6452276-d982-45b6-92af-918c3157bc27",
        "name": "Karliner",
        "street": "Gutenbergstr. 3",
        "zipCode": "59174",
        "city": "Kamen",
        "phone": "02307-71618",
        "fax": "02307-71646",
        "latitude": 51.58599,
        "longitude": 7.67535,
        "detailURL": "https://www.trinkgut.de/markt/karliner"
    },
    {
        "id": "20018f9c-8b1b-4b5b-b3a2-8208335ed83b",
        "name": "Karliner",
        "street": "Sachsenstrasse 26",
        "zipCode": "59229",
        "city": "Ahlen",
        "phone": "02382-768984",
        "fax": "02382-768985",
        "latitude": 51.750082,
        "longitude": 7.902642,
        "detailURL": "https://www.trinkgut.de/markt/karliner-ahlen"
    },
    {
        "id": "00f39c75-2ef6-4bc2-8695-fbfb3a38b008",
        "name": "Karliner",
        "street": "Neubeckumer Str. 134",
        "zipCode": "59269",
        "city": "Beckum",
        "phone": "02521-8290117",
        "fax": "02521-8290118",
        "latitude": 51.77212,
        "longitude": 8.038191,
        "detailURL": "https://www.trinkgut.de/markt/karliner-beckum"
    },
    {
        "id": "e9b0dcbb-8774-49de-95cf-cddc98fa1b2e",
        "name": "Karliner",
        "street": "Hammer Str. 58",
        "zipCode": "59269",
        "city": "Beckum",
        "phone": "02521-8282319",
        "fax": "02521-8283482",
        "latitude": 51.752028,
        "longitude": 8.026865,
        "detailURL": "https://www.trinkgut.de/markt/karliner-beckum-2"
    },
    {
        "id": "db204d9d-3c59-4330-854f-fe86939632b0",
        "name": "Kefenbaum",
        "street": "Wickrather Str. 129",
        "zipCode": "41236",
        "city": "M\u00f6nchengladbach Rheydt",
        "phone": "02166-139967",
        "fax": "02166-139968",
        "latitude": 51.15718,
        "longitude": 6.43899,
        "detailURL": "https://www.trinkgut.de/markt/kefenbaum"
    },
    {
        "id": "6452496b-7446-4963-ae30-276a2924ec1f",
        "name": "Kefenbaum",
        "street": "Volksgartenstr. 85",
        "zipCode": "41065",
        "city": "M\u00f6nchengladbach Pesch",
        "phone": "02161-992245",
        "fax": "02161-992246",
        "latitude": 51.18974,
        "longitude": 6.44881,
        "detailURL": "https://www.trinkgut.de/markt/kefenbaum-moenchengladbach-pesch"
    },
    {
        "id": "016a1001-7314-4730-93ec-d77ed244a79a",
        "name": "Kels",
        "street": "Eisenh\u00fcttenstr. 10",
        "zipCode": "40882",
        "city": "Ratingen",
        "phone": "002102 / 85040",
        "fax": "002102 / 850420",
        "latitude": 51.2965534,
        "longitude": 6.8658561,
        "detailURL": "https://www.trinkgut.de/markt/kels"
    },
    {
        "id": "830824c2-8016-4402-9912-b954443a376e",
        "name": "Kempken",
        "street": "Gahlingspfad 14",
        "zipCode": "47803",
        "city": "Krefeld",
        "phone": "02151-631133",
        "fax": "02151-615134",
        "latitude": 51.34184,
        "longitude": 6.5601613,
        "detailURL": "https://www.trinkgut.de/markt/kempken-krefeld"
    },
    {
        "id": "3f224503-fdc6-46e7-8c8c-14a8ada3b37b",
        "name": "Kirchner",
        "street": "Lindentalweg 4",
        "zipCode": "44388",
        "city": "Dortmund L\u00fctgendortmund",
        "phone": "0231-697208",
        "fax": "0231-694580",
        "latitude": 51.4951,
        "longitude": 7.3448,
        "detailURL": "https://www.trinkgut.de/markt/kirchner"
    },
    {
        "id": "efe43058-7aaf-4ed1-9253-c66c4fbb2643",
        "name": "Kirchner",
        "street": "Hann\u00f6versche Stra\u00dfe 52a",
        "zipCode": "44143",
        "city": "Dortmund Wambel",
        "phone": "0231-5310629",
        "fax": "0231-5311247",
        "latitude": 51.524268,
        "longitude": 7.511237,
        "detailURL": "https://www.trinkgut.de/markt/kirchner-dortmund-wambel"
    },
    {
        "id": "014cad08-3e85-4718-bf01-59f5a95d49a6",
        "name": "Kleinen",
        "street": "Isoldenstr. 23a",
        "zipCode": "45892",
        "city": "Gelsenkirchen Resse",
        "phone": "0209-783605",
        "fax": "0209-783653",
        "latitude": 51.58401,
        "longitude": 7.11339,
        "detailURL": "https://www.trinkgut.de/markt/kleinen"
    },
    {
        "id": "043c90a9-f4d4-4459-820d-1b628253e209",
        "name": "Kleinen",
        "street": "Ottostr. 1",
        "zipCode": "45770",
        "city": "Marl Sinsen",
        "phone": "02365-508463",
        "fax": "02365-508486",
        "latitude": 51.66931,
        "longitude": 7.16899,
        "detailURL": "https://www.trinkgut.de/markt/kleinen-marl-sinsen"
    },
    {
        "id": "5242b71e-509e-4691-adbd-6732234fcf3a",
        "name": "Kn\u00f6dgen",
        "street": "Castroper Strasse 124",
        "zipCode": "45665",
        "city": "Recklinghausen",
        "phone": "02361-9433419",
        "fax": "02361-9433429",
        "latitude": 51.605318,
        "longitude": 7.212975,
        "detailURL": "https://www.trinkgut.de/markt/knoedgen"
    },
    {
        "id": "10dae5cc-2f20-4cbd-8f43-f370cc2c2059",
        "name": "Kn\u00f6dgen",
        "street": "Oskar-Hoffmann-Str. 65",
        "zipCode": "44789",
        "city": "Bochum Mitte",
        "phone": "0234-79805765",
        "fax": "0234-90480886",
        "latitude": 51.47405,
        "longitude": 7.2225,
        "detailURL": "https://www.trinkgut.de/markt/knoedgen-bochum-mitte"
    },
    {
        "id": "500aa7d9-106f-4e0d-b239-8d43bcf2c3d1",
        "name": "Knurra",
        "street": "Oberscheidstr. 12",
        "zipCode": "44807",
        "city": "Bochum Riemke",
        "phone": "0234-9536952",
        "fax": "0234-9536859",
        "latitude": 51.5169005,
        "longitude": 7.2166705,
        "detailURL": "https://www.trinkgut.de/markt/knurra"
    },
    {
        "id": "e189b739-581d-4081-811e-886858cfdeaa",
        "name": "Knurra",
        "street": "Dorstener Str. 365",
        "zipCode": "44809",
        "city": "Bochum",
        "phone": "0234-57700612",
        "fax": "0234-61019841",
        "latitude": 51.50321,
        "longitude": 7.188221,
        "detailURL": "https://www.trinkgut.de/markt/knurra-bochum"
    },
    {
        "id": "19fe61fe-0494-4e0b-bf65-41b04ab81113",
        "name": "Kolo",
        "street": "Kapellener Str. 116",
        "zipCode": "47239",
        "city": "Duisburg/ Rumeln-Kaldenhausen",
        "phone": "02151-4029643",
        "fax": "02151-4029683",
        "latitude": 51.39511,
        "longitude": 6.64202,
        "detailURL": "https://www.trinkgut.de/markt/kolo"
    },
    {
        "id": "5f140e68-33bf-4655-8307-067d7a2ab67b",
        "name": "Kolo",
        "street": "Schauenstrasse 50",
        "zipCode": "47228",
        "city": "Duisburg - Rheinhausen",
        "phone": "02065-9013176",
        "fax": "02065-9013177",
        "latitude": 51.420219,
        "longitude": 6.695777,
        "detailURL": "https://www.trinkgut.de/markt/kolo-duisburg-rheinhausen"
    },
    {
        "id": "fc6ed18a-8cd5-4449-a04e-b658dda8ec4f",
        "name": "Konopatzki",
        "street": "Wallstr. 10",
        "zipCode": "46446",
        "city": "Emmerich Mitte",
        "phone": "02822-70953",
        "fax": "02822-537149",
        "latitude": 51.83523,
        "longitude": 6.24536,
        "detailURL": "https://www.trinkgut.de/markt/konopatzki"
    },
    {
        "id": "2ee6c1a1-471b-418d-adcc-8fa2267bd8ee",
        "name": "Kosche",
        "street": "Knochenhorst 1",
        "zipCode": "33129",
        "city": "Delbr\u00fcck",
        "phone": "05250-9394077",
        "fax": "05250-",
        "latitude": 51.7557633,
        "longitude": 8.5593813,
        "detailURL": "https://www.trinkgut.de/markt/kosche"
    },
    {
        "id": "ab73bb71-d975-4acc-8ba6-761e35715706",
        "name": "Kox",
        "street": "Umgehungsstr. 2",
        "zipCode": "47647",
        "city": "Kerken-Aldekerk",
        "phone": "02833-5729900",
        "fax": "02833-5729910",
        "latitude": 51.442092,
        "longitude": 6.415905,
        "detailURL": "https://www.trinkgut.de/markt/kox"
    },
    {
        "id": "94c89ce3-8fe0-4edc-a2a7-51bbfca2551f",
        "name": "Krallmann",
        "street": "Rehhecke 77",
        "zipCode": "40885",
        "city": "Ratingen/ Lintorf",
        "phone": "02102-3099735",
        "fax": "02102-3099736",
        "latitude": 51.34105,
        "longitude": 6.83626,
        "detailURL": "https://www.trinkgut.de/markt/krallmann"
    },
    {
        "id": "7b55119a-f27c-4317-a979-269d447a1eda",
        "name": "Kronen",
        "street": "Uellendahlerstr. 186",
        "zipCode": "42109",
        "city": "Wuppertal Elberfeld",
        "phone": "0202-752996",
        "fax": "0202-754682",
        "latitude": 51.27367,
        "longitude": 7.15089,
        "detailURL": "https://www.trinkgut.de/markt/kronen"
    },
    {
        "id": "21b8b3b1-1ea1-4a4d-ae03-1e808145be9b",
        "name": "Kronen",
        "street": "Ruhrstr. 1 b",
        "zipCode": "58300",
        "city": "Wetter",
        "phone": "02335-846794",
        "fax": "02335-846795",
        "latitude": 51.38395,
        "longitude": 7.38931,
        "detailURL": "https://www.trinkgut.de/markt/kronen-wetter"
    },
    {
        "id": "bc40d06a-c5f5-4587-9f4f-f2367f681e93",
        "name": "Kronen",
        "street": "Dahlhauser Str. 103",
        "zipCode": "45279",
        "city": "Essen Steele",
        "phone": "0201-54445",
        "fax": "0201-54446",
        "latitude": 51.44059,
        "longitude": 7.09347,
        "detailURL": "https://www.trinkgut.de/markt/kronen-essen-steele"
    },
    {
        "id": "427bd0fa-9d1a-4389-b37a-597b132b5fc3",
        "name": "K\u00fcrekci",
        "street": "Reeser Landstr. 62",
        "zipCode": "46483",
        "city": "Wesel Feldmark",
        "phone": "0281-1642730",
        "fax": "0281-1642731",
        "latitude": 51.67272,
        "longitude": 6.60935,
        "detailURL": "https://www.trinkgut.de/markt/kuerekci"
    },
    {
        "id": "ea6cad86-0a72-48af-ac9b-2f76a019398a",
        "name": "Kusenberg",
        "street": "Am Sandthof 22",
        "zipCode": "47574",
        "city": "Goch",
        "phone": "02823-4191017",
        "fax": "02823-4191018",
        "latitude": 51.669572,
        "longitude": 6.179107,
        "detailURL": "https://www.trinkgut.de/markt/kusenberg"
    },
    {
        "id": "be91e5ad-b7cd-4134-bcba-8f2a44e31486",
        "name": "Lehmann",
        "street": "Mendener Str. 21",
        "zipCode": "53840",
        "city": "Troisdorf",
        "phone": "02241-9744460",
        "fax": "02241-9744461",
        "latitude": 50.8073,
        "longitude": 7.15909,
        "detailURL": "https://www.trinkgut.de/markt/lehmann"
    },
    {
        "id": "5dc1f8cb-9001-46e5-a995-4de542708a13",
        "name": "L\u00f6tschert",
        "street": "Kirchweg 58",
        "zipCode": "59071",
        "city": "Hamm",
        "phone": "02381-3055412",
        "fax": "02381-3055413",
        "latitude": 51.67466,
        "longitude": 7.87262,
        "detailURL": "https://www.trinkgut.de/markt/loetschert"
    },
    {
        "id": "14707e08-7b6a-45a8-861a-ba0124dd00e0",
        "name": "Luck",
        "street": "Schneiderstr. 13",
        "zipCode": "40764",
        "city": "Langenfeld Immingrath",
        "phone": "02173-929255",
        "fax": "02173-929268",
        "latitude": 51.12051,
        "longitude": 6.96876,
        "detailURL": "https://www.trinkgut.de/markt/luck"
    },
    {
        "id": "62211d5a-17b3-49be-b3df-9b90d689ae3f",
        "name": "Luck",
        "street": "Moltkestr. 25",
        "zipCode": "42799",
        "city": "Leichlingen",
        "phone": "02175-979674",
        "fax": "02175-884394",
        "latitude": 51.10355,
        "longitude": 7.00259,
        "detailURL": "https://www.trinkgut.de/markt/luck-leichlingen"
    },
    {
        "id": "93d2ca3c-2b67-4bcc-9d71-69928d89e0ca",
        "name": "Winkels",
        "street": "D\u00fcsseldorfer Str.76-84",
        "zipCode": "42781",
        "city": "Haan",
        "phone": "02129-3475452",
        "fax": null,
        "latitude": 51.1871923,
        "longitude": 6.9866455,
        "detailURL": "https://www.trinkgut.de/markt/winkels"
    },
    {
        "id": "41ea6dbd-3572-4f9f-a89a-9366f6b56101",
        "name": "Marc M\u00fcller",
        "street": "Alte Ratinger Landstr. 25a",
        "zipCode": "42489",
        "city": "W\u00fclfrath",
        "phone": "+49 2058 8941596",
        "fax": "+49 2058 8941597",
        "latitude": 51.278428,
        "longitude": 7.019041,
        "detailURL": "https://www.trinkgut.de/markt/marc-mueller"
    },
    {
        "id": "2d5e8226-6e51-4759-a9c5-00052e76b6ce",
        "name": "Mayer",
        "street": "Hellweg 12",
        "zipCode": "32825",
        "city": "Blomberg",
        "phone": "05235-99004",
        "fax": "05235-99005",
        "latitude": 51.9394777,
        "longitude": 9.0858991,
        "detailURL": "https://www.trinkgut.de/markt/mayer"
    },
    {
        "id": "90131e26-272b-41ec-a54f-426c08934e44",
        "name": "Mayer",
        "street": "Alter Rehmer Weg 10",
        "zipCode": "32547",
        "city": "Bad Oeynhausen",
        "phone": "05731-9816055",
        "fax": "05731-9816056",
        "latitude": 52.2094157,
        "longitude": 8.8085288,
        "detailURL": "https://www.trinkgut.de/markt/mayer-bad-oeynhausen"
    },
    {
        "id": "d82e4048-04fb-488d-a408-eae56fae2244",
        "name": "Meisner",
        "street": "Kieferstr. 41",
        "zipCode": "44225",
        "city": "Dortmund Hombruch",
        "phone": "0231-7900642",
        "fax": "0231-7900643",
        "latitude": 51.46885,
        "longitude": 7.43165,
        "detailURL": "https://www.trinkgut.de/markt/meisner"
    },
    {
        "id": "517e730b-3b73-4577-a524-1669c8d9e072",
        "name": "Messerich",
        "street": "M\u00e4rkischestr. 40-44",
        "zipCode": "42281",
        "city": "Wuppertal Barmen",
        "phone": "0202-5288474",
        "fax": "0202-2522820",
        "latitude": 51.28528,
        "longitude": 7.20815,
        "detailURL": "https://www.trinkgut.de/markt/messerich"
    },
    {
        "id": "c441caa3-8616-478d-8f32-73551aa0523e",
        "name": "Miler",
        "street": "Mechernicher Weg 59",
        "zipCode": "53894",
        "city": "Mechernich",
        "phone": "02443-3102007",
        "fax": "02443-3102026",
        "latitude": 50.618457,
        "longitude": 6.655299,
        "detailURL": "https://www.trinkgut.de/markt/miler"
    },
    {
        "id": "fa97de55-c96b-42f2-94e3-6ac7e203cfae",
        "name": "Miler",
        "street": "Karolinger Str.7",
        "zipCode": "53903",
        "city": "Z\u00fclpich",
        "phone": "02252-8376968",
        "fax": "02252-8388939",
        "latitude": 50.6980073,
        "longitude": 6.6622161,
        "detailURL": "https://www.trinkgut.de/markt/miler-zuelpich"
    },
    {
        "id": "5471e3df-7da2-450a-b069-812bd6674457",
        "name": "M\u00fcller",
        "street": "Am Hammerwerk 6-8",
        "zipCode": "41515",
        "city": "Grevenbroich Mitte",
        "phone": "02181-2136323",
        "fax": "02181-2136324",
        "latitude": 51.08655,
        "longitude": 6.57632,
        "detailURL": "https://www.trinkgut.de/markt/mueller"
    },
    {
        "id": "65cb45ec-f193-4be5-ad88-f2de5963274e",
        "name": "M\u00fcller",
        "street": "Rudolf-Diesel-Str. 11",
        "zipCode": "41516",
        "city": "Grevenbroich Wevelinghoven",
        "phone": "02181-272515",
        "fax": "02181-272516",
        "latitude": 51.10992,
        "longitude": 6.63216,
        "detailURL": "https://www.trinkgut.de/markt/mueller-grevenbroich-wevelinghoven"
    },
    {
        "id": "2525d569-8015-4ad7-880b-75c9eda17b07",
        "name": "Filiale Ennepetal",
        "street": "K\u00f6lner Str. 311-313",
        "zipCode": "58256",
        "city": "Ennepetal",
        "phone": "02333-60990",
        "fax": null,
        "latitude": 51.297189,
        "longitude": 7.313473,
        "detailURL": "https://www.trinkgut.de/markt/filiale-ennepetal"
    },
    {
        "id": "9d21d9a7-89b7-4481-9571-99d81cf0ccda",
        "name": "Filiale Lage",
        "street": "Detmolder Str. 21",
        "zipCode": "32791",
        "city": "Lage",
        "phone": "05232-6920",
        "fax": "05232-692100",
        "latitude": 51.986208,
        "longitude": 8.804135,
        "detailURL": "https://www.trinkgut.de/markt/filiale-lage"
    },
    {
        "id": "dda2e1b6-1eaa-4793-9408-45582e222da6",
        "name": "Filiale Lemgo",
        "street": "Grevenmarschstr. 18 - 22",
        "zipCode": "32657",
        "city": "Lemgo",
        "phone": "05261-927499",
        "fax": "05261-927665",
        "latitude": 52.024453,
        "longitude": 8.891202,
        "detailURL": "https://www.trinkgut.de/markt/filiale-lemgo"
    },
    {
        "id": "523fd34e-fa92-48b3-9a12-47200426f67c",
        "name": "Filiale Oelde",
        "street": "In der Geist 100",
        "zipCode": "59302",
        "city": "Oelde",
        "phone": "02522-8346178",
        "fax": null,
        "latitude": 51.8130904,
        "longitude": 8.1338452,
        "detailURL": "https://www.trinkgut.de/markt/filiale-oelde"
    },
    {
        "id": "45ce2f58-3bd6-4daa-8e98-0ac074a64d35",
        "name": "Filiale Schloss Holte-Stukenbrock",
        "street": "Holter Str.136",
        "zipCode": "33758",
        "city": "Schloss Holte-Stukenbrock",
        "phone": "05207-95330",
        "fax": "05207-953350",
        "latitude": 51.904779,
        "longitude": 8.636836,
        "detailURL": "https://www.trinkgut.de/markt/filiale-schloss-holte-stukenbrock"
    },
    {
        "id": "3ad7283e-e94a-4e4a-85ce-287180574787",
        "name": "Filiale Sundern",
        "street": "In der R\u00f6hre 21",
        "zipCode": "59846",
        "city": "Sundern",
        "phone": "02933-9099842",
        "fax": "02933-9028671",
        "latitude": 51.31434,
        "longitude": 8.01223,
        "detailURL": "https://www.trinkgut.de/markt/filiale-sundern"
    },
    {
        "id": "9366004c-7ffd-41e4-ba5c-5e6ad017d177",
        "name": "Filiale Voerde",
        "street": "Grenzstr.200",
        "zipCode": "46562",
        "city": "Voerde",
        "phone": "02855-96920",
        "fax": null,
        "latitude": 51.6161033,
        "longitude": 6.6792724,
        "detailURL": "https://www.trinkgut.de/markt/filiale-voerde"
    },
    {
        "id": "91629445-ce0a-4530-a526-662dc590a08c",
        "name": "Neumann",
        "street": "Recklingh\u00e4user Str. 57/59",
        "zipCode": "45721",
        "city": "Haltern",
        "phone": "02364-506560",
        "fax": "02364-506570",
        "latitude": 51.73811,
        "longitude": 7.18775,
        "detailURL": "https://www.trinkgut.de/markt/neumann"
    },
    {
        "id": "edc7ce36-ae58-4c6f-a1bb-d3ee44beef55",
        "name": "Neumann",
        "street": "Nordring 6",
        "zipCode": "45894",
        "city": "Gelsenkirchen Buer",
        "phone": "0209-31772",
        "fax": "0209-31773",
        "latitude": 51.58517,
        "longitude": 7.04703,
        "detailURL": "https://www.trinkgut.de/markt/neumann-gelsenkirchen-buer"
    },
    {
        "id": "811abf5e-d418-4296-abd0-40beb9db492e",
        "name": "Neumann",
        "street": "Am F\u00f6rderturm 33",
        "zipCode": "46049",
        "city": "Oberhausen",
        "phone": "0208-6201710",
        "fax": "0208-6201782",
        "latitude": 51.47273,
        "longitude": 6.84864,
        "detailURL": "https://www.trinkgut.de/markt/neumann-oberhausen"
    },
    {
        "id": "1da3ce09-79cb-460f-8660-f04d06ed6353",
        "name": "Ochmann",
        "street": "Clemens-August-Str. 81",
        "zipCode": "59821",
        "city": "Arnsberg",
        "phone": "02931-787664",
        "fax": "02931-788117",
        "latitude": 51.402439,
        "longitude": 8.067396,
        "detailURL": "https://www.trinkgut.de/markt/ochmann"
    },
    {
        "id": "57d4a0c3-1a00-4249-8fa3-057d3c0c54ae",
        "name": "Ogiolda",
        "street": "Nordstern-Park 5/ Geilenkirchener Str.",
        "zipCode": "52134",
        "city": "Herzogenrath",
        "phone": "02406-9792005",
        "fax": "02406-9792006",
        "latitude": 50.879753,
        "longitude": 6.115068,
        "detailURL": "https://www.trinkgut.de/markt/ogiolda"
    },
    {
        "id": "f408ae8e-b0af-466a-8d61-a8de50fd32da",
        "name": "Ostwald",
        "street": "Aachener Str. 530",
        "zipCode": "50226",
        "city": "Frechen K\u00f6nigsdorf",
        "phone": "02234-201863",
        "fax": "02234-201864",
        "latitude": 50.9378123,
        "longitude": 6.7873866,
        "detailURL": "https://www.trinkgut.de/markt/ostwald"
    },
    {
        "id": "4f23a24b-0ca5-453a-b5c9-2999d3062430",
        "name": "Vo\u00df",
        "street": "Sudbrackstr. 25",
        "zipCode": "33611",
        "city": "Bielefeld Schildesche",
        "phone": "0521-5201222",
        "fax": "0521-5201232",
        "latitude": 52.0369,
        "longitude": 8.53446,
        "detailURL": "https://www.trinkgut.de/markt/voss"
    },
    {
        "id": "18e56ae9-54d4-48e9-b1c2-c6fe89156745",
        "name": "Vo\u00df",
        "street": "G\u00fctersloher Stra\u00dfe 241",
        "zipCode": "33649",
        "city": "Bielefeld",
        "phone": "0521-41769873",
        "fax": "0521-41769874",
        "latitude": 51.9829955,
        "longitude": 8.4819415,
        "detailURL": "https://www.trinkgut.de/markt/voss-bielefeld"
    },
    {
        "id": "a174b870-90c3-4e71-bd85-7fc411ca3fb0",
        "name": "Rademacher",
        "street": "M\u00fcnsterstra\u00dfe 150",
        "zipCode": "48249",
        "city": "D\u00fclmen",
        "phone": "02594-7828362",
        "fax": "02594-7890273",
        "latitude": 51.84112,
        "longitude": 7.28711,
        "detailURL": "https://www.trinkgut.de/markt/rademacher"
    },
    {
        "id": "afa0c1dc-184e-4d48-9f00-96d7fc481713",
        "name": "Rademacher",
        "street": "Wiesenstr. 6",
        "zipCode": "45711",
        "city": "Datteln",
        "phone": "02363-559659",
        "fax": "02363-559670",
        "latitude": 51.649806,
        "longitude": 7.330985,
        "detailURL": "https://www.trinkgut.de/markt/rademacher-datteln"
    },
    {
        "id": "c696e227-27fc-43c0-9428-2e3240425875",
        "name": "Rademacher",
        "street": "Hansestr. 18",
        "zipCode": "48653",
        "city": "Coesfeld",
        "phone": "02541-9260695",
        "fax": "02541-9260698",
        "latitude": 51.93706,
        "longitude": 7.16707,
        "detailURL": "https://www.trinkgut.de/markt/rademacher-coesfeld"
    },
    {
        "id": "28ea09d7-cbce-48bd-9086-f4dc194fb892",
        "name": "Rademacher",
        "street": "Halterner Str. 250",
        "zipCode": "48249",
        "city": "D\u00fclmen",
        "phone": "02594-9099292",
        "fax": "02594-9099696",
        "latitude": 51.81424,
        "longitude": 7.2541013,
        "detailURL": "https://www.trinkgut.de/markt/rademacher-duelmen"
    },
    {
        "id": "ee55b550-200b-4937-9618-8200cd8aceb8",
        "name": "Schewer",
        "street": "Hagenauer Str. 27",
        "zipCode": "65203",
        "city": "Wiesbaden",
        "phone": "0611-5659315",
        "fax": "0611-5659316",
        "latitude": 50.049157,
        "longitude": 8.2244577,
        "detailURL": "https://www.trinkgut.de/markt/schewer"
    },
    {
        "id": "03a94b6a-2ec5-4f9b-8464-d411499caf64",
        "name": "Ressing",
        "street": "Oststr. 5",
        "zipCode": "47475",
        "city": "Kamp Lintfort",
        "phone": "02842-559795",
        "fax": "02842-559836",
        "latitude": 51.51021,
        "longitude": 6.54522,
        "detailURL": "https://www.trinkgut.de/markt/ressing"
    },
    {
        "id": "cd2f11c1-90f4-4105-9f27-34c301b45cac",
        "name": "Riedmann",
        "street": "Am Trimbuschhof 13",
        "zipCode": "44628",
        "city": "Herne Sodingen",
        "phone": "02323-917050",
        "fax": "02323-917052",
        "latitude": 51.54752,
        "longitude": 7.23923,
        "detailURL": "https://www.trinkgut.de/markt/riedmann"
    },
    {
        "id": "40b93a8f-92fd-457a-9d57-6ff032414a2e",
        "name": "R\u00f6cher",
        "street": "Allmannshausen 8",
        "zipCode": "56410",
        "city": "Montabaur",
        "phone": "02602-1341222",
        "fax": "02602-1341999",
        "latitude": 50.44078,
        "longitude": 7.832068,
        "detailURL": "https://www.trinkgut.de/markt/roecher"
    },
    {
        "id": "2b1a3146-590c-4b76-b1d5-4bb2a0be3d62",
        "name": "Shenna R\u00f6cher",
        "street": "Rudolf-Diesel-Str. 13",
        "zipCode": "54516",
        "city": "Wittlich",
        "phone": "06571-1469018",
        "fax": "06571-1469020",
        "latitude": 49.98709,
        "longitude": 6.90817,
        "detailURL": "https://www.trinkgut.de/markt/shenna-roecher"
    },
    {
        "id": "f6da566e-3ea4-46d2-b162-e0fa696bac77",
        "name": "R\u00f6cher",
        "street": "Koblenzer Str. 58",
        "zipCode": "56626",
        "city": "Andernach",
        "phone": "02632-989696",
        "fax": "02632-989680",
        "latitude": 50.435799,
        "longitude": 7.416278,
        "detailURL": "https://www.trinkgut.de/markt/roecher-andernach"
    },
    {
        "id": "9ee58e4e-e884-4847-b30b-9a499e19f200",
        "name": "Rockstroh",
        "street": "S\u00fcdring 176",
        "zipCode": "42579",
        "city": "Heiligenhaus",
        "phone": "02056-20077",
        "fax": "02056-922055",
        "latitude": 51.325114,
        "longitude": 6.959599,
        "detailURL": "https://www.trinkgut.de/markt/rockstroh"
    },
    {
        "id": "ee1d136f-58be-40bb-bc37-385cbf4d3ea0",
        "name": "Roese",
        "street": "Borsigstr. 38b",
        "zipCode": "52525",
        "city": "Heinsberg",
        "phone": "02452-1061770",
        "fax": "02452-1062861",
        "latitude": 51.06654,
        "longitude": 6.11205,
        "detailURL": "https://www.trinkgut.de/markt/roese"
    },
    {
        "id": "1c19cc0b-6844-4144-a93c-c8d12e092efb",
        "name": "Rosenzweig",
        "street": "Berliner Stra\u00dfe 27",
        "zipCode": "52351",
        "city": "D\u00fcren",
        "phone": "02421-971050",
        "fax": "02421-971051",
        "latitude": 50.80202,
        "longitude": 6.502885,
        "detailURL": "https://www.trinkgut.de/markt/rosenzweig"
    },
    {
        "id": "132eac2d-7c8a-48ae-8cdb-a81fc44168d3",
        "name": "Rosenzweig",
        "street": "Nideggener Str. 219",
        "zipCode": "52349",
        "city": "D\u00fcren",
        "phone": "02421-1216887",
        "fax": "02421-1216930",
        "latitude": 50.78713,
        "longitude": 6.49003,
        "detailURL": "https://www.trinkgut.de/markt/rosenzweig-dueren"
    },
    {
        "id": "1fcf64d1-cff7-4cb7-a3ac-53b243bfabf9",
        "name": "Rottmann",
        "street": "Boxtelstr. 3",
        "zipCode": "46509",
        "city": "Xanten",
        "phone": "02801-982463",
        "fax": "02801-982464",
        "latitude": 51.65374,
        "longitude": 6.43513,
        "detailURL": "https://www.trinkgut.de/markt/rottmann"
    },
    {
        "id": "6b3f8b98-3afe-4963-a2d0-14b2a7805353",
        "name": "Rottmann",
        "street": "Briener Str. 46",
        "zipCode": "47533",
        "city": "Kleve Kellen",
        "phone": "02821-980572",
        "fax": "02821-980671",
        "latitude": 51.79686,
        "longitude": 6.14672,
        "detailURL": "https://www.trinkgut.de/markt/rottmann-kleve-kellen"
    },
    {
        "id": "a16db5a4-1e73-4866-b089-0bc93e0d4dca",
        "name": "Rusche",
        "street": "Am Wald 1",
        "zipCode": "40789",
        "city": "Monheim",
        "phone": "02173-4994021",
        "fax": "02173-4994022",
        "latitude": 51.0948,
        "longitude": 6.91137,
        "detailURL": "https://www.trinkgut.de/markt/rusche"
    },
    {
        "id": "fc18727c-88e8-43c7-b958-ac85bc2de797",
        "name": "Schaffers",
        "street": "Hoogeweg 144",
        "zipCode": "47623",
        "city": "Kevelaer",
        "phone": "02832-979201",
        "fax": "02832-979202",
        "latitude": 51.58207,
        "longitude": 6.26065,
        "detailURL": "https://www.trinkgut.de/markt/schaffers"
    },
    {
        "id": "8e94dda5-4e11-4644-8085-913e2ae04613",
        "name": "Sch\u00e4fer",
        "street": "Elsassstr.. 139",
        "zipCode": "52068",
        "city": "Aachen",
        "phone": "0241-99799621",
        "fax": "0241-99799835",
        "latitude": 50.7786588,
        "longitude": 6.1185711,
        "detailURL": "https://www.trinkgut.de/markt/schaefer"
    },
    {
        "id": "4bc4bdba-f72e-497f-92b6-a227ac0893c7",
        "name": "Schmelzeisen",
        "street": "Berliner Str.10",
        "zipCode": "44649",
        "city": "Herne",
        "phone": "02325-6359691",
        "fax": "02325-9123220",
        "latitude": 51.5232687,
        "longitude": 7.1525663,
        "detailURL": "https://www.trinkgut.de/markt/schmelzeisen"
    },
    {
        "id": "e05ca235-095d-4ce4-a14e-d0e226bc2f7a",
        "name": "Schenke",
        "street": "Rhedaer Strasse 27",
        "zipCode": "33332",
        "city": "G\u00fctersloh",
        "phone": "05241-951360",
        "fax": "05241-951365",
        "latitude": 51.905837,
        "longitude": 8.401523,
        "detailURL": "https://www.trinkgut.de/markt/schenke"
    },
    {
        "id": "31ea7903-a9b3-4527-8866-a1cee0a71a6b",
        "name": "Schenke",
        "street": "Carl-Bertelsmannstrasse 105",
        "zipCode": "33332",
        "city": "G\u00fctersloh",
        "phone": "05241-9986801",
        "fax": "05241-9986802",
        "latitude": 51.895152,
        "longitude": 8.365527,
        "detailURL": "https://www.trinkgut.de/markt/schenke-guetersloh"
    },
    {
        "id": "e5f9301e-1ba9-4c2d-8f87-7dee54358ed0",
        "name": "Schirwitz",
        "street": "Siemensstr. 9",
        "zipCode": "50259",
        "city": "Pulheim",
        "phone": "02238-9299940",
        "fax": "02238-9299939",
        "latitude": 50.992613,
        "longitude": 6.818172,
        "detailURL": "https://www.trinkgut.de/markt/schirwitz"
    },
    {
        "id": "e9ab05af-4186-4b7f-9560-219d06f4d6e2",
        "name": "Schirwitz",
        "street": "Kieler Str. 25",
        "zipCode": "41540",
        "city": "Dormagen Horrem",
        "phone": "02133-259870",
        "fax": "02133-259951",
        "latitude": 51.0925407,
        "longitude": 6.8116869,
        "detailURL": "https://www.trinkgut.de/markt/schirwitz-dormagen-horrem"
    },
    {
        "id": "de6bed65-2bca-41da-8013-2c477a8d98a5",
        "name": "Neumann",
        "street": "D\u00fcsseldorfer Str. 203",
        "zipCode": "45481",
        "city": "M\u00fclheim",
        "phone": "0208-43789850",
        "fax": "0208-43789851",
        "latitude": 51.4105159,
        "longitude": 6.8682173,
        "detailURL": "https://www.trinkgut.de/markt/neumann-muelheim"
    },
    {
        "id": "6ec2de0f-87be-44b4-9a94-f7907e040652",
        "name": "Neumann",
        "street": "Werdener Weg 25",
        "zipCode": "45470",
        "city": "M\u00fclheim",
        "phone": "0208-3016050",
        "fax": "0208-3016032",
        "latitude": 51.4210775,
        "longitude": 6.8952828,
        "detailURL": "https://www.trinkgut.de/markt/neumann-muelheim-2"
    },
    {
        "id": "a43d215a-31d9-4a7b-b030-4f5e2d961650",
        "name": "Schmitz & Sohn",
        "street": "Sch\u00fctzenstr. 130",
        "zipCode": "42659",
        "city": "Solingen",
        "phone": "0212-2443554",
        "fax": "0212-2443555",
        "latitude": 51.1595,
        "longitude": 7.1036,
        "detailURL": "https://www.trinkgut.de/markt/schmitz-sohn"
    },
    {
        "id": "cba56755-1e18-4836-b29b-25bce8389e89",
        "name": "Schmitz & Sohn",
        "street": "Focher Str. 52",
        "zipCode": "42719",
        "city": "Solingen",
        "phone": "0212-2219771",
        "fax": "0212-2219820",
        "latitude": 51.1919808,
        "longitude": 7.0680208,
        "detailURL": "https://www.trinkgut.de/markt/schmitz-sohn-solingen"
    },
    {
        "id": "a645cbcd-0505-48e6-ad64-5d10c46078e5",
        "name": "Schmitz",
        "street": "Borner Str. 78",
        "zipCode": "41379",
        "city": "Br\u00fcggen",
        "phone": "02163-6309",
        "fax": "02163-572682",
        "latitude": 51.2454264,
        "longitude": 6.1940495,
        "detailURL": "https://www.trinkgut.de/markt/schmitz"
    },
    {
        "id": "28af231e-4a5c-42da-a07c-9dcf5b79d216",
        "name": "Scholz",
        "street": "Remscheider Str. 167",
        "zipCode": "42899",
        "city": "Remscheid",
        "phone": "02191-4602874",
        "fax": "02191-4602875",
        "latitude": 51.1971913,
        "longitude": 7.2167291,
        "detailURL": "https://www.trinkgut.de/markt/scholz"
    },
    {
        "id": "3145fe25-2189-4080-b6b9-ac9c789cf050",
        "name": "Schulz",
        "street": "Bismarckstr. 40",
        "zipCode": "49324",
        "city": "Melle",
        "phone": "05422-921900",
        "fax": "05422-922689",
        "latitude": 52.20763,
        "longitude": 8.33487,
        "detailURL": "https://www.trinkgut.de/markt/schulz"
    },
    {
        "id": "68c708fd-5a3f-4e59-a2e7-c755194f1df9",
        "name": "Schumann",
        "street": "H\u00fcingser Ring 7",
        "zipCode": "58710",
        "city": "Menden H\u00fcingsen",
        "phone": "02373-397711",
        "fax": "02373-397717",
        "latitude": 51.4081842,
        "longitude": 7.8270648,
        "detailURL": "https://www.trinkgut.de/markt/schumann"
    },
    {
        "id": "e0c8532a-e50a-4fe6-b4d8-7bb324711090",
        "name": "Schumann",
        "street": "Frielingsen 3",
        "zipCode": "58706",
        "city": "Menden",
        "phone": "02373-174105",
        "fax": "02373-174107",
        "latitude": 51.4408759,
        "longitude": 7.7798037,
        "detailURL": "https://www.trinkgut.de/markt/schumann-menden"
    },
    {
        "id": "5908f243-e24c-4c22-82cc-bed1bc1d65fb",
        "name": "Schumann",
        "street": "Wilhelm-Feuerhake-Str. 10a",
        "zipCode": "58730",
        "city": "Fr\u00f6ndenberg",
        "phone": "02373-1725685",
        "fax": "02373-1727805",
        "latitude": 51.47193,
        "longitude": 7.75908,
        "detailURL": "https://www.trinkgut.de/markt/schumann-froendenberg"
    },
    {
        "id": "4c06b67d-3ed9-4ea0-aa95-772dfbd89e44",
        "name": "Schumann",
        "street": "Briloner Str. 45a",
        "zipCode": "59872",
        "city": "Meschede",
        "phone": "0291-90858978",
        "fax": "0291-90858981",
        "latitude": 51.3475411,
        "longitude": 8.2965797,
        "detailURL": "https://www.trinkgut.de/markt/schumann-meschede"
    },
    {
        "id": "dcb70e3c-ea16-419f-ad63-0d8010870c34",
        "name": "Schwalm",
        "street": "Koepestr. 1-3",
        "zipCode": "41812",
        "city": "Erkelenz",
        "phone": "02431-971920",
        "fax": "02431-971922",
        "latitude": 51.07336,
        "longitude": 6.32535,
        "detailURL": "https://www.trinkgut.de/markt/schwalm"
    },
    {
        "id": "815fa92b-e990-4195-90de-fc019f828a3a",
        "name": "Schwarze",
        "street": "Windm\u00fcller Str. 6a",
        "zipCode": "59557",
        "city": "Lippstadt",
        "phone": "02941-2025407",
        "fax": "02941-2029404",
        "latitude": 51.66022,
        "longitude": 8.36297,
        "detailURL": "https://www.trinkgut.de/markt/schwarze"
    },
    {
        "id": "a8872ef8-cca3-4488-be40-8981aedf4809",
        "name": "Seifert",
        "street": "Lange Wende 111",
        "zipCode": "59755",
        "city": "Arnsberg Neheim",
        "phone": "02932-890254",
        "fax": "02932-890255",
        "latitude": 51.44315,
        "longitude": 7.96677,
        "detailURL": "https://www.trinkgut.de/markt/seifert"
    },
    {
        "id": "a92a8db1-61e7-4173-af84-21a7467fbf38",
        "name": "Singscheit",
        "street": "Westring 320",
        "zipCode": "42329",
        "city": "Wuppertal",
        "phone": "0202-47938422",
        "fax": "0202-47938423",
        "latitude": 51.214274,
        "longitude": 7.05863,
        "detailURL": "https://www.trinkgut.de/markt/singscheit"
    },
    {
        "id": "6b88507f-d7c5-4536-b659-7f4347a46e54",
        "name": "Sowa",
        "street": "Nino-Allee 3",
        "zipCode": "48529",
        "city": "Nordhorn",
        "phone": "05921-73662",
        "fax": "05921-74128",
        "latitude": 52.428819,
        "longitude": 7.069142,
        "detailURL": "https://www.trinkgut.de/markt/sowa"
    },
    {
        "id": "1636d387-b1df-4158-8472-c3e24ed174fc",
        "name": "Steckelbroeck",
        "street": "Moltkestr. 22",
        "zipCode": "47877",
        "city": "Willich",
        "phone": "02154 - 8999014",
        "fax": "02154-9546144",
        "latitude": 51.2592,
        "longitude": 6.5156,
        "detailURL": "https://www.trinkgut.de/markt/steckelbroeck"
    },
    {
        "id": "a32e4947-4b54-4f96-9fef-4b29fe71ba06",
        "name": "Steilen",
        "street": "Geierstr. 7",
        "zipCode": "53881",
        "city": "Euskirchen",
        "phone": "02255-9491649",
        "fax": "02255-9491648",
        "latitude": 50.6272,
        "longitude": 6.8478,
        "detailURL": "https://www.trinkgut.de/markt/steilen"
    },
    {
        "id": "4b390f9f-be62-40d3-899e-7356d3f303e4",
        "name": "Steinga\u00df",
        "street": "Friedrichstr. 37",
        "zipCode": "42551",
        "city": "Velbert Unterstadt",
        "phone": "02051-951721",
        "fax": "02051-951720",
        "latitude": 51.34349,
        "longitude": 7.03601,
        "detailURL": "https://www.trinkgut.de/markt/steingass"
    },
    {
        "id": "21e1c59d-8132-47e8-9897-4a1deb46988c",
        "name": "Strau\u00df",
        "street": "Victor-Slotosch-Str. 14a",
        "zipCode": "60388",
        "city": "Frankfurt",
        "phone": "06109-249375",
        "fax": "06109-375625",
        "latitude": 50.1444293,
        "longitude": 8.7489209,
        "detailURL": "https://www.trinkgut.de/markt/strauss"
    },
    {
        "id": "4b6a362d-f64e-401e-8049-86eb274bcbbb",
        "name": "Strohb\u00fccker",
        "street": "Grothues 3",
        "zipCode": "48351",
        "city": "Everswinkel",
        "phone": "02582-991970",
        "fax": "02582-9919718",
        "latitude": 51.932994,
        "longitude": 7.853547,
        "detailURL": "https://www.trinkgut.de/markt/strohbuecker-everswinkel"
    },
    {
        "id": "e2365e46-e2cc-4f28-91f8-920f9b9f2ccd",
        "name": "Strohb\u00fccker",
        "street": "Carl-Benz-Str. 4",
        "zipCode": "48336",
        "city": "Sassenberg",
        "phone": "02583-302683",
        "fax": "02583-302684",
        "latitude": 51.9822,
        "longitude": 8.0536,
        "detailURL": "https://www.trinkgut.de/markt/strohbuecker-sassenberg"
    },
    {
        "id": "a74ff102-174e-4790-beba-2c95fec87406",
        "name": "Strohb\u00fccker",
        "street": "Borsigstr. 11",
        "zipCode": "48324",
        "city": "Sendenhorst",
        "phone": "02526-951321",
        "fax": "02526-951322",
        "latitude": 51.84717,
        "longitude": 7.84469,
        "detailURL": "https://www.trinkgut.de/markt/strohbuecker-sendenhorst"
    },
    {
        "id": "393e295d-13fc-4c65-bca3-1f52ab3f239d",
        "name": "Strohb\u00fccker",
        "street": "S\u00fcdstr.18",
        "zipCode": "48231",
        "city": "Warendorf Industriegeb. Waterstroate",
        "phone": "02581-787485",
        "fax": "02581-787486",
        "latitude": 51.94137,
        "longitude": 7.98779,
        "detailURL": "https://www.trinkgut.de/markt/strohbuecker-warendorf-industriegeb.-waterstroate"
    },
    {
        "id": "86f024b0-bd05-4cc4-a81a-f0bc287abdc8",
        "name": "Strohb\u00fccker",
        "street": "R\u00f6merstra\u00dfe 24",
        "zipCode": "59075",
        "city": "Hamm",
        "phone": "02381-3040446",
        "fax": "02381-3040447",
        "latitude": 51.695717,
        "longitude": 7.773939,
        "detailURL": "https://www.trinkgut.de/markt/strohbuecker-hamm"
    },
    {
        "id": "c6540352-7fe4-44da-ab57-50b6b62a16e6",
        "name": "Stubenrauch",
        "street": "Schlachthofstr. 36-38",
        "zipCode": "47167",
        "city": "Duisburg Hamborn",
        "phone": "0203-5007000",
        "fax": "0203-5007002",
        "latitude": 51.5031,
        "longitude": 6.7837,
        "detailURL": "https://www.trinkgut.de/markt/stubenrauch"
    },
    {
        "id": "71ac1627-6376-4400-a92f-e7c4e948ec6a",
        "name": "St\u00fcbing",
        "street": "Tu\u00dfmannstr. 74",
        "zipCode": "40477",
        "city": "D\u00fcsseldorf",
        "phone": "0211-481277",
        "fax": "0211-5141059",
        "latitude": 51.241971,
        "longitude": 6.792036,
        "detailURL": "https://www.trinkgut.de/markt/stuebing"
    },
    {
        "id": "ffcb2176-f588-4562-9059-efa7949fb06d",
        "name": "St\u00fcbing",
        "street": "Boschstr. 9",
        "zipCode": "40880",
        "city": "Ratingen West",
        "phone": "02102-473905",
        "fax": "02102-473905",
        "latitude": 51.2990243,
        "longitude": 6.8179508,
        "detailURL": "https://www.trinkgut.de/markt/stuebing-ratingen-west"
    },
    {
        "id": "6bed6c45-10ae-480a-b6ad-c8631fda838e",
        "name": "Superat OHG",
        "street": "Kleinbahnstr. 28",
        "zipCode": "47906",
        "city": "Kempen am Niederrhein",
        "phone": "02152-515373",
        "fax": "02152-515374",
        "latitude": 51.3725783,
        "longitude": 6.4210878,
        "detailURL": "https://www.trinkgut.de/markt/superat-ohg"
    },
    {
        "id": "58a67132-a0e9-4a35-a3aa-6fc722a62fd1",
        "name": "G\u00f6ldner",
        "street": "Buerschestr.95a",
        "zipCode": "45964",
        "city": "Gladbeck",
        "phone": "02043-25159",
        "fax": "02043-25447",
        "latitude": 51.579142,
        "longitude": 7.007418,
        "detailURL": "https://www.trinkgut.de/markt/goeldner-gladbeck"
    },
    {
        "id": "65b6c989-25d6-4695-a89d-47c768ee8309",
        "name": "Filiale Alfter",
        "street": "Alfterer Stra\u00dfe 43",
        "zipCode": "53347",
        "city": "Alfter",
        "phone": "0228-9649393",
        "fax": "0228-9649432",
        "latitude": 50.7152943,
        "longitude": 7.0269394,
        "detailURL": "https://www.trinkgut.de/markt/filiale-alfter"
    },
    {
        "id": "d16b7b87-3c3c-41c5-b8f5-e2e282961884",
        "name": "Filiale Bergkamen",
        "street": "R\u00fcnther Str. 155",
        "zipCode": "59192",
        "city": "Bergkamen",
        "phone": "02389-780250",
        "fax": "02389-780249",
        "latitude": 51.6434047,
        "longitude": 7.6499487,
        "detailURL": "https://www.trinkgut.de/markt/filiale-bergkamen"
    },
    {
        "id": "fa34993a-5ac9-4e7f-8a40-6e127cf11ec5",
        "name": "Filiale Bonn Bad Godesberg",
        "street": "Am Dinaswerk 4b",
        "zipCode": "53179",
        "city": "Bonn Bad Godesberg",
        "phone": "0228-3504796",
        "fax": "0228-3509784",
        "latitude": 50.666539,
        "longitude": 7.181124,
        "detailURL": "https://www.trinkgut.de/markt/filiale-bonn-bad-godesberg"
    },
    {
        "id": "1db38d65-e272-4b68-94e3-3ec285fbb515",
        "name": "Filiale Bornheim",
        "street": "Am Hellenkreuz 3",
        "zipCode": "53332",
        "city": "Bornheim",
        "phone": "02222-9277060",
        "fax": "02222-9299296",
        "latitude": 50.7629248,
        "longitude": 6.9757048,
        "detailURL": "https://www.trinkgut.de/markt/filiale-bornheim"
    },
    {
        "id": "2aa6873d-8026-4d35-9f93-473a631d0f23",
        "name": "Filiale Br\u00fchl",
        "street": "Wesselinger Stra\u00dfe 2-8",
        "zipCode": "50321",
        "city": "Br\u00fchl",
        "phone": "02232-9499117",
        "fax": "02232-9499118",
        "latitude": 50.829966,
        "longitude": 6.925281,
        "detailURL": "https://www.trinkgut.de/markt/filiale-bruehl"
    },
    {
        "id": "1016236d-6f35-42ce-8dc5-0452e1d424af",
        "name": "Filiale D\u00fcsseldorf Oberkassel",
        "street": "Heerdter Lohweg 226",
        "zipCode": "40549",
        "city": "D\u00fcsseldorf",
        "phone": "0211-5370728",
        "fax": "0211-5382580",
        "latitude": 51.2381711,
        "longitude": 6.7281789,
        "detailURL": "https://www.trinkgut.de/markt/filiale-duesseldorf-oberkassel"
    },
    {
        "id": "8f97823a-d36b-490d-9243-1c1c9d8a15d6",
        "name": "Filiale D\u00fcsseldorf Unterrath",
        "street": "An der Piwipp 118",
        "zipCode": "40468",
        "city": "D\u00fcsseldorf",
        "phone": "0211-6024190",
        "fax": "0211-6024191",
        "latitude": 51.263311,
        "longitude": 6.77914,
        "detailURL": "https://www.trinkgut.de/markt/filiale-duesseldorf-unterrath"
    },
    {
        "id": "2be2144f-e035-492f-845c-99586792885b",
        "name": "Filiale D\u00fcsseldorf Oberbilk",
        "street": "Im Liefeld 2",
        "zipCode": "40227",
        "city": "D\u00fcsseldorf Oberbilk",
        "phone": "0211-16752785",
        "fax": "0211-16752786",
        "latitude": 51.210944,
        "longitude": 6.8113484,
        "detailURL": "https://www.trinkgut.de/markt/filiale-duesseldorf-oberbilk"
    },
    {
        "id": "5469d3f9-8da9-48e6-bc57-59222ab53681",
        "name": "Filiale Erkrath Hochdahl",
        "street": "Gruitener Str. 5",
        "zipCode": "40699",
        "city": "Erkrath",
        "phone": "02104-44737",
        "fax": "02104-776966",
        "latitude": 51.2164479,
        "longitude": 6.9606952,
        "detailURL": "https://www.trinkgut.de/markt/filiale-erkrath-hochdahl"
    },
    {
        "id": "e2a589b2-5907-488b-b4fa-188dc7578cbd",
        "name": "Filiale Essen Kray",
        "street": "Rotthauser Str. 48",
        "zipCode": "45306",
        "city": "Essen",
        "phone": "0201-557509",
        "fax": "0201-3169870",
        "latitude": 51.474774,
        "longitude": 7.081395,
        "detailURL": "https://www.trinkgut.de/markt/filiale-essen-kray"
    },
    {
        "id": "9ecee757-ab6f-4840-8c46-2eeba685f756",
        "name": "Filiale Essen Zentrum",
        "street": "Haedenkampstr. 71",
        "zipCode": "45143",
        "city": "Essen",
        "phone": "0201-6462534",
        "fax": "0201-6462539",
        "latitude": 51.456013,
        "longitude": 6.983718,
        "detailURL": "https://www.trinkgut.de/markt/filiale-essen-zentrum"
    },
    {
        "id": "bd1c45a4-6d30-4cbc-b7f5-464c4c3528e3",
        "name": "Filiale Garbsen",
        "street": "Osterwalder Str. 22",
        "zipCode": "30827",
        "city": "Garbsen",
        "phone": "05131-446802",
        "fax": "05131-446803",
        "latitude": 52.44577,
        "longitude": 9.60902,
        "detailURL": "https://www.trinkgut.de/markt/filiale-garbsen"
    },
    {
        "id": "aa170134-4440-4ae9-81a4-b0d75a07c66d",
        "name": "Filiale Geilenkirchen",
        "street": "von-Humboldtstr. 103",
        "zipCode": "52511",
        "city": "Geilenkirchen",
        "phone": "02451-4096949",
        "fax": "02451-4097005",
        "latitude": 50.97818,
        "longitude": 6.10478,
        "detailURL": "https://www.trinkgut.de/markt/filiale-geilenkirchen"
    },
    {
        "id": "2f7c375e-f9ba-4f21-8034-4a0f2da23300",
        "name": "Filiale Grevenbroich",
        "street": "An der Zuckerfabrik 13",
        "zipCode": "41516",
        "city": "Grevenbroich",
        "phone": "02181-2121101",
        "fax": "02181-2131680",
        "latitude": 51.096244,
        "longitude": 6.604823,
        "detailURL": "https://www.trinkgut.de/markt/filiale-grevenbroich"
    },
    {
        "id": "10f0e012-7477-4d36-a609-897f81bdba00",
        "name": "Filiale Hagen",
        "street": "H\u00f6rdenstr. 2",
        "zipCode": "58135",
        "city": "Hagen",
        "phone": "02331-4730200",
        "fax": "02331-4730376",
        "latitude": 51.3491933,
        "longitude": 7.4364913,
        "detailURL": "https://www.trinkgut.de/markt/filiale-hagen"
    },
    {
        "id": "ac484b4b-013f-484e-b347-8e833f6f24c3",
        "name": "Filiale Hagen",
        "street": "Poststr. 13",
        "zipCode": "58099",
        "city": "Hagen Kabel",
        "phone": "02331-3963727",
        "fax": "02331-3966506",
        "latitude": 51.401589,
        "longitude": 7.482719,
        "detailURL": "https://www.trinkgut.de/markt/filiale-hagen-hagen-kabel"
    },
    {
        "id": "8659fb04-b673-4e07-8f36-70c4a556c98d",
        "name": "Kozak",
        "street": "Roermonder Stra\u00dfe 63 a",
        "zipCode": "52134",
        "city": "Herzogenrath",
        "phone": "02407-5656333",
        "fax": "02407-5656436",
        "latitude": 50.83348,
        "longitude": 6.076541,
        "detailURL": "https://www.trinkgut.de/markt/kozak"
    },
    {
        "id": "836f1c6d-b8f5-4a3f-9c0e-b04a3bf6aad2",
        "name": "Filiale K\u00f6ln",
        "street": "Mathias-Br\u00fcggen-Str. 1",
        "zipCode": "50827",
        "city": "K\u00f6ln",
        "phone": "0221-29790565",
        "fax": "0221-70903059",
        "latitude": 50.96359,
        "longitude": 6.888,
        "detailURL": "https://www.trinkgut.de/markt/filiale-koeln"
    },
    {
        "id": "37c3a6fa-93a1-4298-8ba4-3465b59eeb65",
        "name": "Filiale Linnich",
        "street": "J\u00fclicherstr. 21",
        "zipCode": "52441",
        "city": "Linnich",
        "phone": "02462-2033254",
        "fax": "02462-2033255",
        "latitude": 50.980498,
        "longitude": 6.282202,
        "detailURL": "https://www.trinkgut.de/markt/filiale-linnich"
    },
    {
        "id": "3849c7eb-ca05-4bd1-8e6e-6761e5ec63d3",
        "name": "Filiale L\u00fcnen",
        "street": "Kupferstr. 15",
        "zipCode": "44532",
        "city": "L\u00fcnen",
        "phone": "02306-9279423",
        "fax": "02306-9279424",
        "latitude": 51.60633,
        "longitude": 7.50443,
        "detailURL": "https://www.trinkgut.de/markt/filiale-luenen"
    },
    {
        "id": "76675b83-45cf-4b0f-b242-f3a664c3a68c",
        "name": "Filiale M\u00f6nchengladbach",
        "street": "K\u00fcnkelstr. 50",
        "zipCode": "41063",
        "city": "M\u00f6nchengladbach",
        "phone": "02161-178171",
        "fax": "02161-294411",
        "latitude": 51.209764,
        "longitude": 6.454057,
        "detailURL": "https://www.trinkgut.de/markt/filiale-moenchengladbach"
    },
    {
        "id": "78d81502-bc2a-4797-a6a9-72a11a7282b4",
        "name": "Filiale M\u00fclheim",
        "street": "Heidestrasse 15a",
        "zipCode": "45476",
        "city": "M\u00fclheim an der Ruhr",
        "phone": "0208-37748091",
        "fax": "0208-37748092",
        "latitude": 51.45144,
        "longitude": 6.850895,
        "detailURL": "https://www.trinkgut.de/markt/filiale-muelheim"
    },
    {
        "id": "54ac47a4-d82a-4354-908e-1da325e185b9",
        "name": "Filiale Niederkr\u00fcchten",
        "street": "Gewerbering 19",
        "zipCode": "41372",
        "city": "Niederkr\u00fcchten",
        "phone": "02163-5798180",
        "fax": "02163-5798189",
        "latitude": 51.209276,
        "longitude": 6.182531,
        "detailURL": "https://www.trinkgut.de/markt/filiale-niederkruechten"
    },
    {
        "id": "8adf3d66-eeee-4e95-94dd-71140d271ace",
        "name": "Filiale Nettetal",
        "street": "Poststrasse 64",
        "zipCode": "41334",
        "city": "Nettetal",
        "phone": "02157-6689",
        "fax": "02157-875557",
        "latitude": 51.326884,
        "longitude": 6.198851,
        "detailURL": "https://www.trinkgut.de/markt/filiale-nettetal"
    },
    {
        "id": "f0ebca6f-a272-441c-8227-e0aead0c3852",
        "name": "Filiale Ratingen Breitscheid",
        "street": "K\u00f6lner Str. 61",
        "zipCode": "40885",
        "city": "Ratingen Breitscheid",
        "phone": "02102-1037861",
        "fax": "02102-1037862",
        "latitude": 51.343431,
        "longitude": 6.866602,
        "detailURL": "https://www.trinkgut.de/markt/filiale-ratingen-breitscheid"
    },
    {
        "id": "5d3bb0bc-a242-47dd-adbd-dc8eb2626496",
        "name": "Filiale \u00dcbach-Palenberg",
        "street": "Friedrich-Ebert-Str. 103",
        "zipCode": "52531",
        "city": "\u00dcbach-Palenberg",
        "phone": "02451-628705",
        "fax": "02451-628706",
        "latitude": 50.921657,
        "longitude": 6.117618,
        "detailURL": "https://www.trinkgut.de/markt/filiale-uebach-palenberg"
    },
    {
        "id": "6b55b97a-cd1d-4158-9a3d-58a9b6122f50",
        "name": "Filiale Velbert City Park",
        "street": "Friedrichstr. 303",
        "zipCode": "42551",
        "city": "Velbert",
        "phone": "02051-21187",
        "fax": "02051-257803",
        "latitude": 51.331273,
        "longitude": 7.055258,
        "detailURL": "https://www.trinkgut.de/markt/filiale-velbert-city-park"
    },
    {
        "id": "a684c074-fd45-4230-a7c1-bbd51c6774a5",
        "name": "Filiale Viersen D\u00fclken",
        "street": "Viersener Str. 99b",
        "zipCode": "41751",
        "city": "Viersen D\u00fclken",
        "phone": "02162-1024641",
        "fax": "02162-1024642",
        "latitude": 51.255469,
        "longitude": 6.344687,
        "detailURL": "https://www.trinkgut.de/markt/filiale-viersen-duelken"
    },
    {
        "id": "7a36dcd6-25c1-4ae7-8006-f274ed714b39",
        "name": "Filiale Wesel",
        "street": "Werftstr. 4",
        "zipCode": "46483",
        "city": "Wesel",
        "phone": "0281-31355",
        "fax": "0281-1646752",
        "latitude": 51.653594,
        "longitude": 6.606277,
        "detailURL": "https://www.trinkgut.de/markt/filiale-wesel"
    },
    {
        "id": "e8ede4b7-6786-421e-835d-0a806937865c",
        "name": "Filiale Wuppertal",
        "street": "Viehhofstr. 37",
        "zipCode": "42117",
        "city": "Wuppertal Elberfeld",
        "phone": "0202-9422733",
        "fax": "0202-9422735",
        "latitude": 51.24649,
        "longitude": 7.13738,
        "detailURL": "https://www.trinkgut.de/markt/filiale-wuppertal"
    },
    {
        "id": "2ad9862a-71bb-4d75-b56b-38bbae1ea529",
        "name": "Thoma",
        "street": "Grabenstra\u00dfe 72",
        "zipCode": "52382",
        "city": "Niederzier",
        "phone": "02428-802517",
        "fax": "02428-803206",
        "latitude": 50.84741,
        "longitude": 6.45263,
        "detailURL": "https://www.trinkgut.de/markt/thoma"
    },
    {
        "id": "536acf37-d0a2-4ec7-94ce-c2ffc7884e1e",
        "name": "Neudorf",
        "street": "Sternbuschweg 112",
        "zipCode": "47057",
        "city": "Duisburg",
        "phone": "0203-75987490",
        "fax": "0203-75987491",
        "latitude": 51.4216,
        "longitude": 6.7957,
        "detailURL": "https://www.trinkgut.de/markt/neudorf"
    },
    {
        "id": "7eaab01b-81ef-4501-9891-ddc49d882be7",
        "name": "Uhe",
        "street": "Kreisstr. 43",
        "zipCode": "45525",
        "city": "Hattingen",
        "phone": "02324-55651",
        "fax": "02324-55657",
        "latitude": 51.3954,
        "longitude": 7.1779,
        "detailURL": "https://www.trinkgut.de/markt/uhe"
    },
    {
        "id": "ab213082-e93f-4287-911b-0cca567ea12d",
        "name": "Uhe",
        "street": "Bochumer Str. 6",
        "zipCode": "45549",
        "city": "Sprockh\u00f6vel",
        "phone": "02324-79745",
        "fax": "02324-78510",
        "latitude": 51.3677802,
        "longitude": 7.2530949,
        "detailURL": "https://www.trinkgut.de/markt/uhe-sprockhoevel"
    },
    {
        "id": "9e083ff7-6048-4a5b-b68b-c592948e7351",
        "name": "Uhe",
        "street": "Bonsfelder Stra\u00dfe 3",
        "zipCode": "42555",
        "city": "Velbert-Langenberg",
        "phone": "02052-9285858",
        "fax": "02052-9285859",
        "latitude": 51.372102,
        "longitude": 7.13847,
        "detailURL": "https://www.trinkgut.de/markt/uhe-velbert-langenberg"
    },
    {
        "id": "8c3d051d-f7b8-482b-bb2e-28b3611c1532",
        "name": "Uygun",
        "street": "Sprendlinger Landstr. 152",
        "zipCode": "63069",
        "city": "Offenbach",
        "phone": "069-83003141",
        "fax": "069-83003231",
        "latitude": 50.0873425,
        "longitude": 8.7488279,
        "detailURL": "https://www.trinkgut.de/markt/uygun"
    },
    {
        "id": "5d4c0b62-9906-425b-a1b0-ea28dbcb7d3b",
        "name": "Korn",
        "street": "Industriestr. 45",
        "zipCode": "56218",
        "city": "M\u00fclheim K\u00e4rlich",
        "phone": "02630-962755",
        "fax": "02630-962756",
        "latitude": 50.39637,
        "longitude": 7.5197,
        "detailURL": "https://www.trinkgut.de/markt/korn"
    },
    {
        "id": "4c5fdbb9-08e6-4a8f-ab9d-8d6d3d2e8a9a",
        "name": "Venhoff",
        "street": "Wankumer Str. 6",
        "zipCode": "47638",
        "city": "Straelen",
        "phone": "02834-709279",
        "fax": "02834-709319",
        "latitude": 51.4321238,
        "longitude": 6.2719856,
        "detailURL": "https://www.trinkgut.de/markt/venhoff"
    },
    {
        "id": "a0341cc0-50ee-4141-80ad-52cd9e8c205e",
        "name": "Verhoeven",
        "street": "Weseler Str. 137",
        "zipCode": "47608",
        "city": "Geldern",
        "phone": "02831-80025",
        "fax": "02831-87579",
        "latitude": 51.5203,
        "longitude": 6.3399,
        "detailURL": "https://www.trinkgut.de/markt/verhoeven"
    },
    {
        "id": "28e7b040-fa38-4240-ac66-6b97b7aa65d2",
        "name": "Vo\u00df",
        "street": "Bielefelder Stra\u00dfe 139-141",
        "zipCode": "33378",
        "city": "Rheda-Wiedenbr\u00fcck",
        "phone": "05242-4054890",
        "fax": "05242-4054837",
        "latitude": 51.848646,
        "longitude": 8.322678,
        "detailURL": "https://www.trinkgut.de/markt/voss-rheda-wiedenbrueck"
    },
    {
        "id": "3e0ab9c9-2339-4926-b1ae-e3bcfebc6e5a",
        "name": "Weiss",
        "street": "Inkmannstr. 11",
        "zipCode": "40599",
        "city": "D\u00fcsseldorf Reisholz",
        "phone": "0211-7490004",
        "fax": "0211-7490006",
        "latitude": 51.1793381,
        "longitude": 6.856921,
        "detailURL": "https://www.trinkgut.de/markt/weiss"
    },
    {
        "id": "b3be1771-cd00-4eac-8b1a-dc936b5f114d",
        "name": "Welling",
        "street": "Industriestr. 28",
        "zipCode": "46395",
        "city": "Bocholt",
        "phone": "02871-294550",
        "fax": "02871-294551",
        "latitude": 51.8337301,
        "longitude": 6.6253159,
        "detailURL": "https://www.trinkgut.de/markt/welling"
    },
    {
        "id": "aa16dd17-82f2-4816-9c06-100a2a5902a0",
        "name": "Welling",
        "street": "Neusser Str. 89g",
        "zipCode": "41564",
        "city": "Kaarst",
        "phone": "02131-1517461",
        "fax": "02131-1760241",
        "latitude": 51.23085,
        "longitude": 6.63178,
        "detailURL": "https://www.trinkgut.de/markt/welling-kaarst"
    },
    {
        "id": "b485b21b-2e38-43d5-812b-003c761f52e6",
        "name": "Welling",
        "street": "Butenpass 25",
        "zipCode": "46414",
        "city": "Rhede",
        "phone": "02872-948220",
        "fax": "02872-9482229",
        "latitude": 51.82922,
        "longitude": 6.7107,
        "detailURL": "https://www.trinkgut.de/markt/welling-rhede"
    },
    {
        "id": "3d905c3c-866b-4c7e-b00b-f1170f13e275",
        "name": "Welling",
        "street": "D\u00fcppelstr. 2c",
        "zipCode": "48599",
        "city": "Gronau",
        "phone": "02562-7182438",
        "fax": "02562-7182439",
        "latitude": 52.2033229,
        "longitude": 7.0597353,
        "detailURL": "https://www.trinkgut.de/markt/welling-gronau"
    },
    {
        "id": "b33b0948-7c13-46f1-b405-bb938764566c",
        "name": "Welling",
        "street": "Ahauser Str. 1",
        "zipCode": "46325",
        "city": "Borken",
        "phone": "02861-902475",
        "fax": "02861-902476",
        "latitude": 51.849926,
        "longitude": 6.862868,
        "detailURL": "https://www.trinkgut.de/markt/welling-borken"
    },
    {
        "id": "83ba4b4c-bce4-4743-8fdd-bc6fa8c66213",
        "name": "Welling",
        "street": "Gutenbergstr. 20",
        "zipCode": "50126",
        "city": "Bergheim Zieverich",
        "phone": "02271-670936",
        "fax": "02271-670956",
        "latitude": 50.94725,
        "longitude": 6.6279,
        "detailURL": "https://www.trinkgut.de/markt/welling-bergheim-zieverich"
    },
    {
        "id": "2d22aebf-2f7e-4b35-bb2f-d509b183dd02",
        "name": "Welling",
        "street": "Schorlemer Str. 56",
        "zipCode": "48683",
        "city": "Ahaus",
        "phone": "02561-9639335",
        "fax": "02561-9639336",
        "latitude": 52.073718,
        "longitude": 7.025242,
        "detailURL": "https://www.trinkgut.de/markt/welling-ahaus"
    },
    {
        "id": "722d7aab-9951-4d80-a52c-684479bf14c0",
        "name": "Welling",
        "street": "Graeser Str.4",
        "zipCode": "48683",
        "city": "Ahaus",
        "phone": "02561-9796526",
        "fax": "02561-9796529",
        "latitude": 52.0856337,
        "longitude": 6.9994066,
        "detailURL": "https://www.trinkgut.de/markt/welling-ahaus-2"
    },
    {
        "id": "55d984ad-8ad0-43c2-95d4-e7287f30b7ef",
        "name": "Weninger",
        "street": "Franz-Haniel-Stra\u00dfe 26",
        "zipCode": "47443",
        "city": "Moers",
        "phone": "02841-8809242",
        "fax": "02841-8809211",
        "latitude": 51.455605,
        "longitude": 6.666704,
        "detailURL": "https://www.trinkgut.de/markt/weninger"
    },
    {
        "id": "21600790-95b9-473f-9cf4-4ca988eabb2d",
        "name": "Wiesner",
        "street": "Geusenstr. 18a",
        "zipCode": "41179",
        "city": "M\u00f6nchengladbach Rheindahlen",
        "phone": "02161-4692477",
        "fax": "02161-4692479",
        "latitude": 51.14784,
        "longitude": 6.36732,
        "detailURL": "https://www.trinkgut.de/markt/wiesner"
    },
    {
        "id": "780535a2-bd26-4a6c-991f-7faeab1225a1",
        "name": "Wigezzy",
        "street": "Werner-J\u00e4ger-Str. 59",
        "zipCode": "41334",
        "city": "Nettetal Lobberich",
        "phone": "02153-956525",
        "fax": "02153-956526",
        "latitude": 51.31417,
        "longitude": 6.27935,
        "detailURL": "https://www.trinkgut.de/markt/wigezzy"
    },
    {
        "id": "535b6fb8-8a6f-40b8-96f8-3ca5071e4715",
        "name": "Wilms",
        "street": "Selmer Str. 16 - 18",
        "zipCode": "59399",
        "city": "Olfen",
        "phone": "02595-448",
        "fax": "02595-5436",
        "latitude": 51.7068168,
        "longitude": 7.3862474,
        "detailURL": "https://www.trinkgut.de/markt/wilms"
    },
    {
        "id": "85647588-7893-498d-97a6-5e4f8378337b",
        "name": "Wilms",
        "street": "Olfener Str. 76",
        "zipCode": "59348",
        "city": "L\u00fcdinghausen",
        "phone": "02591-949890",
        "fax": "02591-949891",
        "latitude": 51.7604,
        "longitude": 7.43564,
        "detailURL": "https://www.trinkgut.de/markt/wilms-luedinghausen"
    },
    {
        "id": "e4449b97-5bcf-4c53-9664-742926292f48",
        "name": "Huth",
        "street": "Bosenheimer Str. 84",
        "zipCode": "55543",
        "city": "Bad Kreuznach",
        "phone": "0671-7961961",
        "fax": "0671-7962705",
        "latitude": 49.843244,
        "longitude": 7.873495,
        "detailURL": "https://www.trinkgut.de/markt/huth"
    },
    {
        "id": "e0980134-b53c-4ac0-81dd-7d670864b341",
        "name": "Wodarz",
        "street": "Elisabethweg 10",
        "zipCode": "42651",
        "city": "Solingen",
        "phone": "0212-38096731",
        "fax": "0212-38096732",
        "latitude": 51.181913,
        "longitude": 7.086868,
        "detailURL": "https://www.trinkgut.de/markt/wodarz"
    },
    {
        "id": "1e468fee-55bd-4a9b-9127-7f9d793df31f",
        "name": "Wodzak",
        "street": "Siemensstr. 9",
        "zipCode": "44579",
        "city": "Castrop-Rauxel",
        "phone": "02305-9679198",
        "fax": "02305-9679232",
        "latitude": 51.5793294,
        "longitude": 7.3064429,
        "detailURL": "https://www.trinkgut.de/markt/wodzak"
    },
    {
        "id": "f808080e-e17d-4e55-82eb-869e3fd05a88",
        "name": "Wohlrath",
        "street": "Neheimer Str. 47",
        "zipCode": "59457",
        "city": "Werl",
        "phone": "02922-8781626",
        "fax": "02922-8781627",
        "latitude": 51.54493,
        "longitude": 7.92235,
        "detailURL": "https://www.trinkgut.de/markt/wohlrath"
    },
    {
        "id": "0b847258-4173-47a2-9a9a-ce7ee4017206",
        "name": "Yanar",
        "street": "Stresemannstr. 5-7",
        "zipCode": "53879",
        "city": "Euskirchen",
        "phone": "02251-8106984",
        "fax": "02251-8106985",
        "latitude": 50.6677059,
        "longitude": 6.8047803,
        "detailURL": "https://www.trinkgut.de/markt/yanar"
    },
    {
        "id": "e6bdb218-f6d0-4e3d-a311-f5709fa21ecf",
        "name": "Zarf",
        "street": "Maysweg 8",
        "zipCode": "47918",
        "city": "T\u00f6nisvorst",
        "phone": "02151-1503352",
        "fax": "02151-1503354",
        "latitude": 51.31939,
        "longitude": 6.50646,
        "detailURL": "https://www.trinkgut.de/markt/zarf"
    },
    {
        "id": "cdcc9dd9-a181-41d7-89b8-f13b94b87637",
        "name": "Zegnotat",
        "street": "Dortmunder Str. 19",
        "zipCode": "58455",
        "city": "Witten Annen",
        "phone": "02302-1563",
        "fax": "02302-913758",
        "latitude": 51.4414,
        "longitude": 7.34916,
        "detailURL": "https://www.trinkgut.de/markt/zegnotat"
    },
    {
        "id": "65de4127-89d4-424a-bf69-3a40b2047554",
        "name": "Zierles",
        "street": "Horneburger Str. 183",
        "zipCode": "45739",
        "city": "Oer-Erkenschwick",
        "phone": "02368-8909783",
        "fax": "02368-8909789",
        "latitude": 51.6372777,
        "longitude": 7.2799873,
        "detailURL": "https://www.trinkgut.de/markt/zierles"
    },
    {
        "id": "e9f10b82-b5a1-4df0-9da3-a829ccedfc0d",
        "name": "Sargin",
        "street": "Freiheitsstr. 252-254",
        "zipCode": "41747",
        "city": "Viersen",
        "phone": "02162-102323",
        "fax": "02162-102359",
        "latitude": 51.249,
        "longitude": 6.404,
        "detailURL": "https://www.trinkgut.de/markt/sargin"
    },
    {
        "id": "1be1981c-3d53-4d29-a033-0dde75c7ce72",
        "name": "Strau\u00df",
        "street": "Zeilweg 12",
        "zipCode": "61440",
        "city": "Oberursel (Taunus)",
        "phone": "06171-6984900",
        "fax": "06171-6984905",
        "latitude": 50.207663,
        "longitude": 8.60164,
        "detailURL": "https://www.trinkgut.de/markt/strauss-oberursel-taunus"
    },
    {
        "id": "cff55eb0-9727-484a-8b25-eaa7ab6c3b03",
        "name": "Stubenrauch",
        "street": "An der Neuweide 24",
        "zipCode": "47495",
        "city": "Rheinberg",
        "phone": "02843-901658",
        "fax": "02843-901660",
        "latitude": 51.53579,
        "longitude": 6.60869,
        "detailURL": "https://www.trinkgut.de/markt/stubenrauch-rheinberg"
    },
    {
        "id": "b9ea8a5f-fb74-467b-9e3d-a65a4d9f39b2",
        "name": "Filiale Herne",
        "street": "Rathausstr. 101",
        "zipCode": "44649",
        "city": "Herne",
        "phone": "02325-977046",
        "fax": null,
        "latitude": 51.5412439,
        "longitude": 7.1570242,
        "detailURL": "https://www.trinkgut.de/markt/filiale-herne"
    },
    {
        "id": "0f32582f-18a5-4951-870b-e2e981645e0d",
        "name": "Filiale Witten",
        "street": "Sprockh\u00f6veler Str.122",
        "zipCode": "58452",
        "city": "Witten",
        "phone": "02302-9122956",
        "fax": null,
        "latitude": 51.439,
        "longitude": 7.322,
        "detailURL": "https://www.trinkgut.de/markt/filiale-witten"
    },
    {
        "id": "d1143e4d-e44b-46cc-bf1f-9f58981a7632",
        "name": "Filiale M\u00fclheim",
        "street": "Weseler Str.64",
        "zipCode": "45478",
        "city": "M\u00fclheim an der Ruhr",
        "phone": "0208-30293456",
        "fax": null,
        "latitude": 51.4388606,
        "longitude": 6.8304909,
        "detailURL": "https://www.trinkgut.de/markt/filiale-muelheim-muelheim-an-der-ruhr"
    },
    {
        "id": "330a487d-aaf8-4b1c-be8f-70c0220c5b2d",
        "name": "Filiale K\u00f6ln-Chorweiler",
        "street": "Elbeallee 23",
        "zipCode": "50765",
        "city": "K\u00f6ln-Chorweiler",
        "phone": "0221-7001718",
        "fax": null,
        "latitude": 51.0268043,
        "longitude": 6.8852047,
        "detailURL": "https://www.trinkgut.de/markt/filiale-koeln-chorweiler"
    },
    {
        "id": "79dc9aab-b93f-4c2c-9026-5f59405ed888",
        "name": "Filiale Essen Altenessen",
        "street": "Altenessener Str. 295",
        "zipCode": "45326",
        "city": "Essen",
        "phone": "0201-3163820",
        "fax": null,
        "latitude": 51.4993708,
        "longitude": 6.9979095,
        "detailURL": "https://www.trinkgut.de/markt/filiale-essen-altenessen"
    },
    {
        "id": "6391daf3-0c1a-4d7e-b22a-b9a2e362a3da",
        "name": "Filiale Bochum",
        "street": "Friedrich-Lueg-Str.2-8",
        "zipCode": "44867",
        "city": "Bochum",
        "phone": "02327-939260",
        "fax": null,
        "latitude": 51.4696094,
        "longitude": 7.1290247,
        "detailURL": "https://www.trinkgut.de/markt/filiale-bochum"
    },
    {
        "id": "e0115ec4-ba3a-4d99-8f44-588187e21b18",
        "name": "Filiale Neuburg/Donau",
        "street": "Am S\u00fcdpark 12",
        "zipCode": "86633",
        "city": "Neuburg/Donau",
        "phone": "08458/620",
        "fax": null,
        "latitude": 48.7205306,
        "longitude": 11.1729601,
        "detailURL": "https://www.trinkgut.de/markt/filiale-neuburg-donau"
    },
    {
        "id": "1da0f9de-96b4-468b-a6a4-a97f60006c5b",
        "name": "Filiale Krumbach",
        "street": "Michael-Faist-Stra\u00dfe 29",
        "zipCode": "86381",
        "city": "Krumbach",
        "phone": "08282-8904399",
        "fax": null,
        "latitude": 48.251959,
        "longitude": 10.3528467,
        "detailURL": "https://www.trinkgut.de/markt/filiale-krumbach"
    },
    {
        "id": "b97ab7d6-bff2-4b4c-86c7-620d8ac19e9f",
        "name": "Filiale Ingolstadt",
        "street": "Haenlinstra\u00dfe 3",
        "zipCode": "85055",
        "city": "Ingolstadt",
        "phone": "0841-99390822",
        "fax": null,
        "latitude": 48.7718224,
        "longitude": 11.4523606,
        "detailURL": "https://www.trinkgut.de/markt/filiale-ingolstadt"
    },
    {
        "id": "d1b91ef5-1bad-4f87-86d9-eadb0df19878",
        "name": "Dygacz",
        "street": "P\u00fcllenweg 11a",
        "zipCode": "41352",
        "city": "Korschenbroich",
        "phone": "02161-4025658",
        "fax": "02161-4025981",
        "latitude": 51.19643,
        "longitude": 6.54746,
        "detailURL": "https://www.trinkgut.de/markt/dygacz"
    },
    {
        "id": "93534333-23e5-495d-bcdb-10ed4f8fb497",
        "name": "Ehls",
        "street": "Jurgenstr. 20",
        "zipCode": "47574",
        "city": "Goch",
        "phone": "02823-418707",
        "fax": "02823-18680",
        "latitude": 51.68918,
        "longitude": 6.13502,
        "detailURL": "https://www.trinkgut.de/markt/ehls"
    },
    {
        "id": "332c5331-e35b-4993-a947-82699a513019",
        "name": "Fettweis",
        "street": "Lockhofstr. 8",
        "zipCode": "45881",
        "city": "Gelsenkirchen Schalke",
        "phone": "0209-9470386",
        "fax": "0209-9470878",
        "latitude": 51.52292,
        "longitude": 7.07681,
        "detailURL": "https://www.trinkgut.de/markt/fettweis"
    },
    {
        "id": "c8c48b27-5b60-4b97-90a5-8bfbe36306f6",
        "name": "Zegnotat",
        "street": "Krabler Str. 125",
        "zipCode": "45326",
        "city": "Essen Altenessen",
        "phone": "0201-8354943",
        "fax": "0201-8354944",
        "latitude": 51.48514,
        "longitude": 6.99572,
        "detailURL": "https://www.trinkgut.de/markt/zegnotat-essen-altenessen"
    },
    {
        "id": "9c518a92-04d4-4b1b-b984-f5ee69ab2034",
        "name": "Filiale Herten",
        "street": "Hoppenwall 8",
        "zipCode": "45701",
        "city": "Herten",
        "phone": "0209-36151570",
        "fax": null,
        "latitude": 51.6184074,
        "longitude": 7.0774667,
        "detailURL": "https://www.trinkgut.de/markt/filiale-herten"
    },
    {
        "id": "cc6f37e2-4932-4bfa-9551-74d3286fd782",
        "name": "Filiale Bad K\u00f6tzing",
        "street": "Lehmgasse 8",
        "zipCode": "93444",
        "city": "Bad K\u00f6tzing",
        "phone": "08458 - 620",
        "fax": null,
        "latitude": 49.1745604,
        "longitude": 12.8636859,
        "detailURL": "https://www.trinkgut.de/markt/filiale-bad-koetzing"
    },
    {
        "id": "497af351-019d-4737-b18d-9159ba65e787",
        "name": "Fanderl",
        "street": "M\u00fcnchener Stra\u00dfe 140",
        "zipCode": "85051",
        "city": "Ingolstadt",
        "phone": "0841 / 95357884",
        "fax": null,
        "latitude": 48.7387144,
        "longitude": 11.4353645,
        "detailURL": "https://www.trinkgut.de/markt/fanderl"
    },
    {
        "id": "e80debd6-5117-48eb-8874-606fd64bfc76",
        "name": "Buchholz",
        "street": "Breite Str. 3-5",
        "zipCode": "40670",
        "city": "Meerbusch",
        "phone": "02159-693854",
        "fax": "02159-693855",
        "latitude": 51.27445,
        "longitude": 6.62013,
        "detailURL": "https://www.trinkgut.de/markt/buchholz"
    },
    {
        "id": "bc238045-eecd-4ed4-9e3a-c49862154763",
        "name": "Kronenberger",
        "street": "Sauerbruchstr. 7",
        "zipCode": "45661",
        "city": "Recklinghausen",
        "phone": "02361 9395690",
        "fax": "02361 9395691",
        "latitude": 51.5708057,
        "longitude": 7.2081909,
        "detailURL": "https://www.trinkgut.de/markt/kronenberger"
    },
    {
        "id": "a727f66b-ec3c-48bd-a300-cd363f4cd8d0",
        "name": "Filiale Wuppertal",
        "street": "Bahnstra\u00dfe 63",
        "zipCode": "42327",
        "city": "Wuppertal",
        "phone": "020276900127",
        "fax": null,
        "latitude": 51.2376711,
        "longitude": 7.0309693,
        "detailURL": "https://www.trinkgut.de/markt/filiale-wuppertal-wuppertal"
    },
    {
        "id": "94f9f9a0-1d34-469f-b4ae-89bc72f6d80a",
        "name": "Winkels",
        "street": "Hochdahler Stra\u00dfe 128",
        "zipCode": "42781",
        "city": "Haan",
        "phone": "02129 3796406",
        "fax": null,
        "latitude": 51.1936688,
        "longitude": 6.986036,
        "detailURL": "https://www.trinkgut.de/markt/winkels-haan"
    },
    {
        "id": "af4d3f51-8930-4bce-8c18-761301fe3e94",
        "name": "Filiale D\u00fcsseldorf",
        "street": "Niederrheinstr. 141",
        "zipCode": "40474",
        "city": "D\u00fcsseldorf",
        "phone": "0211-98922184",
        "fax": null,
        "latitude": 51.2785242,
        "longitude": 6.7394963,
        "detailURL": "https://www.trinkgut.de/markt/filiale-duesseldorf"
    },
    {
        "id": "9dfc4df4-e396-4e37-bb99-e5acb8739edc",
        "name": "Bas",
        "street": "Normannenstr. 4",
        "zipCode": "41462",
        "city": "Neuss",
        "phone": "02131-228755",
        "fax": "02131-316587",
        "latitude": 51.216825,
        "longitude": 6.681917,
        "detailURL": "https://www.trinkgut.de/markt/bas"
    },
    {
        "id": "1c23cb28-6f69-485c-905b-c1b7b3e8387b",
        "name": "Filiale Krefeld",
        "street": "Parkstr. 5",
        "zipCode": "47829",
        "city": "Krefeld",
        "phone": "02151-451941",
        "fax": null,
        "latitude": 51.35581,
        "longitude": 6.64294,
        "detailURL": "https://www.trinkgut.de/markt/filiale-krefeld"
    },
    {
        "id": "6d8cc481-173b-4cf5-8ed3-dcd3ed471515",
        "name": "Filiale Petershausen",
        "street": "M\u00fcnchner Stra\u00dfe 5",
        "zipCode": "85238",
        "city": "Petershausen",
        "phone": "08137 9980130",
        "fax": null,
        "latitude": 48.4094078,
        "longitude": 11.46767,
        "detailURL": "https://www.trinkgut.de/markt/filiale-petershausen"
    },
    {
        "id": "a5aba275-a1a8-4939-af42-136772e75324",
        "name": "Filiale D\u00fcsseldorf Gerresheim",
        "street": "Im Br\u00fchl 1-5",
        "zipCode": "40625",
        "city": "D\u00fcsseldorf",
        "phone": "0211-293480",
        "fax": null,
        "latitude": 51.2236959,
        "longitude": 6.8701458,
        "detailURL": "https://www.trinkgut.de/markt/filiale-duesseldorf-gerresheim"
    },
    {
        "id": "5cf9f73a-59ca-40f5-b80e-fe59b669be70",
        "name": "Filiale D\u00fcsseldorf Friedrichstadt",
        "street": "Oberbilker Allee 59",
        "zipCode": "40223",
        "city": "D\u00fcsseldorf",
        "phone": "0211-334871",
        "fax": null,
        "latitude": 51.2103222,
        "longitude": 6.7894939,
        "detailURL": "https://www.trinkgut.de/markt/filiale-duesseldorf-friedrichstadt"
    },
    {
        "id": "c2bae051-f5a2-4a00-b443-63b01e3d4259",
        "name": "Filiale Neufahrn",
        "street": "Ludwig-Erhard-Stra\u00dfe 6",
        "zipCode": "85375",
        "city": "Neufahrn",
        "phone": "folgt",
        "fax": null,
        "latitude": 48.3132184,
        "longitude": 11.6490559,
        "detailURL": "https://www.trinkgut.de/markt/filiale-neufahrn"
    },
    {
        "id": "df018d0c-9c36-40ac-878f-83ff855924f2",
        "name": "Filiale Brannenburg",
        "street": "Rosenheimer Stra\u00dfe 90",
        "zipCode": "83098",
        "city": "Brannenburg",
        "phone": "folgt",
        "fax": null,
        "latitude": 47.7421505,
        "longitude": 12.1042409,
        "detailURL": "https://www.trinkgut.de/markt/filiale-brannenburg"
    },
    {
        "id": "e3844d57-4e0b-4f54-8dfd-5d9933272f05",
        "name": "St\u00f6hr",
        "street": "Daimlerstra\u00dfe 12",
        "zipCode": "66763",
        "city": "Dillingen",
        "phone": "06831 98750",
        "fax": null,
        "latitude": 49.3700799,
        "longitude": 6.7117119,
        "detailURL": "https://www.trinkgut.de/markt/stoehr"
    },
    {
        "id": "2c948baa-f812-4965-bc7e-1d718b2f1799",
        "name": "Kugler",
        "street": "Stuttgarter Stra\u00dfe 76",
        "zipCode": "71554",
        "city": "Weissach im Tal",
        "phone": "07191-52840",
        "fax": "07191-312729",
        "latitude": 48.9274858,
        "longitude": 9.4650872,
        "detailURL": "https://www.trinkgut.de/markt/kugler"
    },
    {
        "id": "79372e50-0400-4a50-a27a-3f78d7414d92",
        "name": "R\u00f6\u00df",
        "street": "Dr. Otto-R\u00f6hm-Stra\u00dfe 5",
        "zipCode": "67547",
        "city": "Worms",
        "phone": "06241 9403020",
        "fax": "06241 94030229",
        "latitude": 49.6499424,
        "longitude": 8.3610184,
        "detailURL": "https://www.trinkgut.de/markt/roess"
    },
    {
        "id": "8da277c4-d7ce-41ea-8c4b-b0c629512c88",
        "name": "Filiale Hamb\u00fchren",
        "street": "Hehlenbruchweg 6",
        "zipCode": "29313",
        "city": "Hamb\u00fchren",
        "phone": "05084-9877866",
        "fax": "05084-9877867",
        "latitude": 52.63362,
        "longitude": 9.9784,
        "detailURL": "https://www.trinkgut.de/markt/filiale-hambuehren"
    },
    {
        "id": "efc21d55-2907-46f4-9b5b-7a464b77e9ed",
        "name": "Gatzke",
        "street": "Josef-Heilingbrunner-Stra\u00dfe 1",
        "zipCode": "93413",
        "city": "Cham",
        "phone": "folgt",
        "fax": null,
        "latitude": 49.22573,
        "longitude": 12.65608,
        "detailURL": "https://www.trinkgut.de/markt/gatzke"
    },
    {
        "id": "795759c4-8d16-44bf-bf6b-592720a30ac8",
        "name": "Coban",
        "street": "Bernauer Str.32",
        "zipCode": "83209",
        "city": "Prien am Chiemsee",
        "phone": "folgt",
        "fax": null,
        "latitude": 47.85156,
        "longitude": 12.34397,
        "detailURL": "https://www.trinkgut.de/markt/coban"
    },
    {
        "id": "5ce81e34-fd26-4a85-9aee-0b11a197e4b9",
        "name": "Frick",
        "street": "Berliner Str.15",
        "zipCode": "69502",
        "city": "Hemsbach",
        "phone": "06201 710370",
        "fax": null,
        "latitude": 49.59734,
        "longitude": 8.64518,
        "detailURL": "https://www.trinkgut.de/markt/frick"
    },
    {
        "id": "9f93f79d-f593-4801-8e68-3495fbf1beae",
        "name": "Kern",
        "street": "Roter Stra\u00dfe 26",
        "zipCode": "68789",
        "city": "St. Leon- Rot",
        "phone": "06227 899 3707",
        "fax": null,
        "latitude": 49.26618,
        "longitude": 8.60768,
        "detailURL": "https://www.trinkgut.de/markt/kern"
    },
    {
        "id": "26de8f31-759c-4e00-90b8-9468fb79ea0a",
        "name": "trinkgut Filiale Neu\u00f6tting",
        "street": "Braumeisterstra\u00dfe 11",
        "zipCode": "85242",
        "city": "Neu\u00f6tting",
        "phone": "folgt",
        "fax": null,
        "latitude": 48.24384,
        "longitude": 12.70945,
        "detailURL": "https://www.trinkgut.de/markt/trinkgut-filiale-neuoetting"
    },
    {
        "id": "6963f6e1-5840-4bcf-b88d-6530c5478422",
        "name": "Filiale Dasing",
        "street": "Aichacherstr.16",
        "zipCode": "86453",
        "city": "Dasing",
        "phone": "08205-9590803",
        "fax": null,
        "latitude": 48.38639,
        "longitude": 11.05867,
        "detailURL": "https://www.trinkgut.de/markt/filiale-dasing"
    },
    {
        "id": "a4699944-6ad9-473f-af64-8fd35cc06e18",
        "name": "Filiale M\u00fcnchen",
        "street": "Landsberger Stra\u00dfe 110-114",
        "zipCode": "80339",
        "city": "M\u00fcnchen",
        "phone": "089-50028815",
        "fax": null,
        "latitude": 48.141155,
        "longitude": 11.535021,
        "detailURL": "https://www.trinkgut.de/markt/filiale-muenchen"
    },
    {
        "id": "684b3981-6d9c-449b-a561-57a1998e01b2",
        "name": "Filiale Aachen",
        "street": "Wurmbenden 9",
        "zipCode": "52070",
        "city": "Aachen",
        "phone": "0241-9161999",
        "fax": "0241-9559551",
        "latitude": 50.79448,
        "longitude": 6.11973,
        "detailURL": "https://www.trinkgut.de/markt/filiale-aachen"
    },
    {
        "id": "b9f1ae5e-6303-463e-a7ae-f785d72345ea",
        "name": "Schwalm",
        "street": "Am Landabsatz 2a",
        "zipCode": "41836",
        "city": "H\u00fcckelhoven",
        "phone": "02433/9521320",
        "fax": "02433/9521321",
        "latitude": 51.05729,
        "longitude": 6.21862,
        "detailURL": "https://www.trinkgut.de/markt/schwalm-hueckelhoven"
    },
    {
        "id": "12dab46a-4425-425d-87f2-89f3b2135244",
        "name": "Filiale Burgau",
        "street": "Augsburger Str.25",
        "zipCode": "89331",
        "city": "Burgau",
        "phone": "folgt",
        "fax": null,
        "latitude": 48.4263,
        "longitude": 10.41192,
        "detailURL": "https://www.trinkgut.de/markt/filiale-burgau"
    }
]